"ID";"Name";"Longitude_WGS84";"Latitude_WGS84";"Street";"AdmArea";"District";"RouteNumbers";"StationName";"Direction";"Pavilion";"OperatingOrgName";"EntryState";"global_id";"geoData";
"7";"«Дербеневская наб.», 3-й Дербеневский переулок (7)";"37.6551636";"55.72566817";"3-й Дербеневский переулок";"Южный административный округ";"Даниловский район";"А13; А632";"Дербеневская наб.";"";"да";"ГУП «Мосгортранс»";"активна";"889076457";"{type=Point, coordinates=[37.6551636, 55.72566817]}";
"11";"«Наб. Тараса Шевченко», набережная Тараса Шевченко (11)";"37.57240854";"55.74944352";"набережная Тараса Шевченко";"Западный административный округ";"район Дорогомилово";"А91";"Наб. Тараса Шевченко";"";"да";"ЗАО «Валль-СНГ»";"активна";"889076459";"{type=Point, coordinates=[37.57240854, 55.74944352]}";
"12";"«Наб. Тараса Шевченко», набережная Тараса Шевченко (12)";"37.57271647";"55.74976112";"набережная Тараса Шевченко";"Западный административный округ";"район Дорогомилово";"А157; А474; А840; А91";"Наб. Тараса Шевченко";"";"да";"ЗАО «Валль-СНГ»";"активна";"889076460";"{type=Point, coordinates=[37.57271647, 55.74976112]}";
"27";"«ВКНЦ», 3-я Черепковская улица (27)";"37.37550932";"55.7572642";"3-я Черепковская улица";"Западный административный округ";"район Кунцево";"А660; А798; А816";"ВКНЦ";"";"да";"ГУП «Мосгортранс»";"активна";"889076461";"{type=Point, coordinates=[37.37550932, 55.7572642]}";
"33";"«Новосущевская ул.», улица Сущёвский Вал (33)";"37.60337594";"55.79289095";"улица Сущёвский Вал";"Северо-Восточный административный округ";"район Марьина Роща";"А126; А384; Тб42; А84; А84К; АТ18";"Новосущевская ул.";"";"да";"ЗАО «Валль-СНГ»";"активна";"889076463";"{type=Point, coordinates=[37.60337594, 55.79289095]}";
"35";"«Керамический пр.», Дубнинская улица (35)";"37.55724554";"55.89460802";"Дубнинская улица";"Северный административный округ";"район Восточное Дегунино";"А167; А179; А677; А677К; А799";"Керамический пр.";"";"да";"ГУП «Мосгортранс»";"активна";"889076464";"{type=Point, coordinates=[37.55724554, 55.89460802]}";
"36";"«Ин-т Стали», Дубнинская улица (36)";"37.55729147";"55.89142924";"Дубнинская улица";"Северный административный округ";"район Восточное Дегунино";"А167; А179; А677; А677К; А799";"Ин-т Стали";"";"да";"ГУП «Мосгортранс»";"активна";"889076465";"{type=Point, coordinates=[37.55729147, 55.89142924]}";
"37";"«Мкр. Дубки», Дубнинская улица (37)";"37.55730686";"55.88768746";"Дубнинская улица";"Северный административный округ";"район Восточное Дегунино";"А167; А179; А677; А677К; А799";"Мкр. Дубки";"";"да";"ГУП «Мосгортранс»";"активна";"889076466";"{type=Point, coordinates=[37.55730686, 55.88768746]}";
"38";"«Д/к Юность», Дубнинская улица (38)";"37.5573643949";"55.8833589241";"Дубнинская улица";"Северный административный округ";"район Восточное Дегунино";"А167; А179; А677; А677К; А799";"Д/к Юность";"";"да";"ГУП «Мосгортранс»";"активна";"889076467";"{type=Point, coordinates=[37.5573643949, 55.8833589241]}";
"39";"«Баскетбольная школа», улица 800-летия Москвы (39)";"37.55636146";"55.88011364";"улица 800-летия Москвы";"Северный административный округ";"район Восточное Дегунино";"А149; А167; А179; А748; А799; А857";"Баскетбольная школа";"";"да";"ГУП «Мосгортранс»";"активна";"889076469";"{type=Point, coordinates=[37.55636146, 55.88011364]}";
"40";"«Ул. 800-летия Москвы», Дмитровское шоссе (40)";"37.54599654";"55.87767168";"Дмитровское шоссе";"Северный административный округ";"Бескудниковский район";"А179; А63; А763; А763К; А843; А994; АТ78";"Ул. 800-летия Москвы";"";"нет";"";"активна";"889076470";"{type=Point, coordinates=[37.54599654, 55.87767168]}";
"41";"«Бескудниково», Дмитровское шоссе (41)";"37.54704248";"55.87458982";"Дмитровское шоссе";"Северный административный округ";"Бескудниковский район";"А179; А63; А763; А763К; А843; А994; АТ78";"Бескудниково";"";"да";"ГУП «Мосгортранс»";"активна";"889076471";"{type=Point, coordinates=[37.54704248, 55.87458982]}";
"42";"«Селигерская ул.», Дмитровское шоссе (42)";"37.54674812";"55.86919544";"Дмитровское шоссе";"Северный административный округ";"Бескудниковский район";"А179; А206к; А63; А763; А763К";"Селигерская ул.";"";"нет";"";"активна";"889076472";"{type=Point, coordinates=[37.54674812, 55.86919544]}";
"43";"«Парк Святослава Федорова», Дмитровское шоссе (43)";"37.54848949";"55.86333482";"Дмитровское шоссе";"Северный административный округ";"район Западное Дегунино";"А179; А194; А206к; А215; А591; А63; А763; А763К; А843; А994; АТ56; АТ78";"Парк Святослава Федорова";"";"нет";"";"активна";"889076473";"{type=Point, coordinates=[37.54848949, 55.86333482]}";
"44";"«Ильменский пр.», Дмитровское шоссе (44)";"37.55318989";"55.86077256";"Дмитровское шоссе";"Северный административный округ";"район Западное Дегунино";"А179; А194; А206к; А215; А591; А63; А763; А763К; А843; А994; АТ56; АТ78";"Ильменский пр.";"";"да";"ГУП «Мосгортранс»";"активна";"889076475";"{type=Point, coordinates=[37.55318989, 55.86077256]}";
"45";"«Метро Верхние Лихоборы - Северный вестибюль», Дмитровское шоссе (45)";"37.55826147";"55.85821217";"Дмитровское шоссе";"Северный административный округ";"район Западное Дегунино";"А179; А194; А206к; А215; А591; А63; А763; А763К; А843; А994; АТ56; АТ78";"Метро Верхние Лихоборы - Северный вестибюль";"";"да";"ГУП «Мосгортранс»";"активна";"889076476";"{type=Point, coordinates=[37.55826147, 55.85821217]}";
"46";"«7-й автобусный парк», Дмитровское шоссе (46)";"37.56585131";"55.85033933";"Дмитровское шоссе";"Северный административный округ";"район Западное Дегунино";"А114; А154; А179; А194; А206к; А215; А282; А466; А591; А63; А677; А677К; А692; А82";"7-й автобусный парк";"";"да";"ГУП «Мосгортранс»";"активна";"889076477";"{type=Point, coordinates=[37.56585131, 55.85033933]}";
"47";"«Нижн. Лихоборы», Дмитровское шоссе (47)";"37.5673105";"55.84733792";"Дмитровское шоссе";"Северный административный округ";"Тимирязевский район";"А114; А179; А194; А215; А282; А692; А82";"Нижн. Лихоборы";"";"да";"ГУП «Мосгортранс»";"активна";"889076478";"{type=Point, coordinates=[37.5673105, 55.84733792]}";
"48";"«Метро Петровско-Разумовская», Локомотивный проезд (48)";"37.57585651";"55.83716907";"Локомотивный проезд";"Северный административный округ";"Тимирязевский район";"А114; А204; А282; А461; АТ19";"Метро Петровско-Разумовская";"";"да";"ГУП «Мосгортранс»";"активна";"889076479";"{type=Point, coordinates=[37.57585651, 55.83716907]}";
"49";"«К/т Байкал», Большая Академическая улица (49)";"37.53956854";"55.83714435";"Большая Академическая улица";"Северный административный округ";"район Коптево";"А114; А179; А204; А282; А300; А461; Тб57; А591; АТ19";"К/т Байкал";"";"да";"ГУП «Мосгортранс»";"активна";"889076480";"{type=Point, coordinates=[37.53956854, 55.83714435]}";
"50";"«Стадион Наука», Большая Академическая улица (50)";"37.5328525";"55.83295208";"Большая Академическая улица";"Северный административный округ";"район Коптево";"А114; А179; А204; А282; А461; Тб57; А591; АТ19";"Стадион Наука";"";"да";"ГУП «Мосгортранс»";"активна";"889076481";"{type=Point, coordinates=[37.5328525, 55.83295208]}";
"51";"«Управа района Коптево», улица Зои и Александра Космодемьянских (51)";"37.52242762";"55.82411549";"улица Зои и Александра Космодемьянских";"Северный административный округ";"район Коптево";"А179; А204; А282; А591; А780";"Управа района Коптево";"";"да";"ГУП «Мосгортранс»";"активна";"889076483";"{type=Point, coordinates=[37.52242762, 55.82411549]}";
"52";"«К/т Рассвет», улица Зои и Александра Космодемьянских (52)";"37.51887274";"55.82307265";"улица Зои и Александра Космодемьянских";"Северный административный округ";"район Коптево";"А179; А204; А282; А591; А780";"К/т Рассвет";"";"да";"ГУП «Мосгортранс»";"активна";"889076484";"{type=Point, coordinates=[37.51887274, 55.82307265]}";
"53";"«3-й Новоподмосковный пер.», улица Зои и Александра Космодемьянских (53)";"37.51084692";"55.82093531";"улица Зои и Александра Космодемьянских";"Северный административный округ";"Войковский район";"А179; А204; А282; А591; А780";"3-й Новоподмосковный пер.";"";"нет";"";"активна";"889076485";"{type=Point, coordinates=[37.51084692, 55.82093531]}";
"54";"«3-й Новоподмосковный пер.», улица Зои и Александра Космодемьянских (54)";"37.51203859";"55.8210445";"улица Зои и Александра Космодемьянских";"Северный административный округ";"Войковский район";"А179; А204; А282; А591; А780";"3-й Новоподмосковный пер.";"";"да";"ГУП «Мосгортранс»";"активна";"889076486";"{type=Point, coordinates=[37.51203859, 55.8210445]}";
"55";"«К/т Рассвет», улица Зои и Александра Космодемьянских (55)";"37.51687828";"55.82237098";"улица Зои и Александра Космодемьянских";"Северный административный округ";"Войковский район";"А179; А204; А282; А591; А780";"К/т Рассвет";"";"да";"ГУП «Мосгортранс»";"активна";"889076487";"{type=Point, coordinates=[37.51687828, 55.82237098]}";
"56";"«Управа района Коптево», улица Зои и Александра Космодемьянских (56)";"37.52300938";"55.82398759";"улица Зои и Александра Космодемьянских";"Северный административный округ";"район Коптево";"А179; А204; А282; А591; А780";"Управа района Коптево";"";"нет";"";"активна";"889076488";"{type=Point, coordinates=[37.52300938, 55.82398759]}";
"57";"«Стадион Наука», Большая Академическая улица (57)";"37.53338601";"55.83304516";"Большая Академическая улица";"Северный административный округ";"район Коптево";"А114; А179; А204; А282; А461; Тб57; А591; АТ19";"Стадион Наука";"";"да";"ГУП «Мосгортранс»";"активна";"889076489";"{type=Point, coordinates=[37.53338601, 55.83304516]}";
"61";"«7-й автобусный парк», Дмитровское шоссе (61)";"37.56536026";"55.85188534";"Дмитровское шоссе";"Северный административный округ";"Бескудниковский район";"А179; А194; А206к; А215; А282; А591; А63; А994";"7-й автобусный парк";"";"нет";"";"активна";"889076490";"{type=Point, coordinates=[37.56536026, 55.85188534]}";
"62";"«Метро Верхние Лихоборы - Северный вестибюль», Дмитровское шоссе (62)";"37.55947707";"55.8580184";"Дмитровское шоссе";"Северный административный округ";"Бескудниковский район";"А179; А194; А206к; А215; Тб36; А591; А63; А763; А763К; А799; А843; А994; АТ47; АТ56; АТ78";"Метро Верхние Лихоборы - Северный вестибюль";"";"да";"ГУП «Мосгортранс»";"активна";"889076491";"{type=Point, coordinates=[37.55947707, 55.8580184]}";
"63";"«Ильменский пр.», Дмитровское шоссе (63)";"37.5540423";"55.86090628";"Дмитровское шоссе";"Северный административный округ";"Бескудниковский район";"А179; А194; А206к; А215; Тб36; А591; А63; А763; А763К; А799; А843; А994; АТ47; АТ56; АТ78";"Ильменский пр.";"";"да";"ГУП «Мосгортранс»";"активна";"889076492";"{type=Point, coordinates=[37.5540423, 55.86090628]}";
"64";"«Парк Святослава Федорова», Дмитровское шоссе (64)";"37.54946654";"55.8634774";"Дмитровское шоссе";"Северный административный округ";"Бескудниковский район";"А179; А194; А206к; А215; А591; А63; А763; А763К; А799; А843; А994; АТ56; АТ78";"Парк Святослава Федорова";"";"да";"ГУП «Мосгортранс»";"активна";"889076493";"{type=Point, coordinates=[37.54946654, 55.8634774]}";
"65";"«Селигерская ул.», Дмитровское шоссе (65)";"37.54748211";"55.86854848";"Дмитровское шоссе";"Северный административный округ";"Бескудниковский район";"А179; А206к; А63; А763; А763К; А799; А843; А994; АТ78";"Селигерская ул.";"";"нет";"";"активна";"889076494";"{type=Point, coordinates=[37.54748211, 55.86854848]}";
"66";"«Бескудниково», Дмитровское шоссе (66)";"37.54811496";"55.87427208";"Дмитровское шоссе";"Северный административный округ";"Бескудниковский район";"А179; А63; А763; А763К; А799; А843; А994; АТ78";"Бескудниково";"";"да";"ГУП «Мосгортранс»";"активна";"889076495";"{type=Point, coordinates=[37.54811496, 55.87427208]}";
"67";"«Баскетбольная школа», Дубнинская улица (67)";"37.55775278";"55.88068293";"Дубнинская улица";"Северный административный округ";"район Восточное Дегунино";"А167; А179; А677; А677К; А799";"Баскетбольная школа";"";"да";"ГУП «Мосгортранс»";"активна";"889076496";"{type=Point, coordinates=[37.55775278, 55.88068293]}";
"68";"«Д/к Юность», Дубнинская улица (68)";"37.5577084088";"55.8843275315";"Дубнинская улица";"Северный административный округ";"район Восточное Дегунино";"А167; А179; А677; А677К; А799";"Д/к Юность";"";"да";"ГУП «Мосгортранс»";"активна";"889076497";"{type=Point, coordinates=[37.5577084088, 55.8843275315]}";
"69";"«Мкр. Дубки», Дубнинская улица (69)";"37.5576739643";"55.8881514089";"Дубнинская улица";"Северный административный округ";"район Восточное Дегунино";"А167; А179; А677; А677К; А799";"Мкр. Дубки";"";"да";"ГУП «Мосгортранс»";"активна";"889076498";"{type=Point, coordinates=[37.5576739643, 55.8881514089]}";
"70";"«Ин-т Стали», Дубнинская улица (70)";"37.55762874";"55.89221605";"Дубнинская улица";"Северный административный округ";"район Восточное Дегунино";"А167; А179; А677; А677К; А799";"Ин-т Стали";"";"да";"ГУП «Мосгортранс»";"активна";"889076499";"{type=Point, coordinates=[37.55762874, 55.89221605]}";
"71";"«Керамический пр.», Дубнинская улица (71)";"37.5575677861";"55.8935280894";"Дубнинская улица";"Северный административный округ";"район Восточное Дегунино";"А167; А179; А677; А677К; А799";"Керамический пр.";"";"да";"ГУП «Мосгортранс»";"активна";"889076500";"{type=Point, coordinates=[37.5575677861, 55.8935280894]}";
"72";"«Платф. Лианозово», Дубнинская улица (72)";"37.55445131";"55.89652393";"Дубнинская улица";"Северный административный округ";"район Восточное Дегунино";"А167; А179; А677; А677К; А799";"Платф. Лианозово";"";"нет";"";"активна";"889076501";"{type=Point, coordinates=[37.55445131, 55.89652393]}";
"73";"«Ст. Ховрино», Ангарская улица (73)";"37.51160056";"55.86956661";"Ангарская улица";"Северный административный округ";"район Западное Дегунино";"А154; А191; А215; А215К; А270; А352; А571; А591; А665; А748; А928";"Ст. Ховрино";"";"да";"ГУП «Мосгортранс»";"активна";"889076502";"{type=Point, coordinates=[37.51160056, 55.86956661]}";
"74";"«Весенняя ул.», Ангарская улица (74)";"37.51459808";"55.87376954";"Ангарская улица";"Северный административный округ";"район Западное Дегунино";"А191; А270; А352; А571; А591; А665; А928";"Весенняя ул.";"";"да";"ГУП «Мосгортранс»";"активна";"889076503";"{type=Point, coordinates=[37.51459808, 55.87376954]}";
"75";"«Мкр. Западное Дегунино», Ангарская улица (75)";"37.5174212";"55.87606574";"Ангарская улица";"Северный административный округ";"район Западное Дегунино";"А191; А270; А352; А571; А591; А665; А928";"Мкр. Западное Дегунино";"";"да";"ГУП «Мосгортранс»";"активна";"889076504";"{type=Point, coordinates=[37.5174212, 55.87606574]}";
"76";"«Ангарская ул.», Коровинское шоссе (76)";"37.52218296";"55.87921929";"Коровинское шоссе";"Северный административный округ";"Дмитровский район";"А114; А191; А270; А352; А571; А656; А665; А799; АТ56";"Ангарская ул.";"";"да";"ГУП «Мосгортранс»";"активна";"889076505";"{type=Point, coordinates=[37.52218296, 55.87921929]}";
"77";"«Колледж № 7», Клязьминская улица (77)";"37.52067236";"55.88456731";"Клязьминская улица";"Северный административный округ";"Дмитровский район";"А191; А194; А200; А352; А571; А665";"Колледж № 7";"";"да";"ГУП «Мосгортранс»";"активна";"889076506";"{type=Point, coordinates=[37.52067236, 55.88456731]}";
"78";"«Ин-т Микрохирургии глаза», Коровинское шоссе (78)";"37.53738746";"55.86877206";"Коровинское шоссе";"Северный административный округ";"район Западное Дегунино";"А191; А194; А215К; А591; А656; А672; АТ56";"Ин-т Микрохирургии глаза";"";"да";"ГУП «Мосгортранс»";"активна";"889076507";"{type=Point, coordinates=[37.53738746, 55.86877206]}";
"79";"«Селигерская ул.», Коровинское шоссе (79)";"37.54227253";"55.8664487";"Коровинское шоссе";"Северный административный округ";"район Западное Дегунино";"А194; А591";"Селигерская ул.";"";"да";"ГУП «Мосгортранс»";"активна";"889076508";"{type=Point, coordinates=[37.54227253, 55.8664487]}";
"80";"«К/т Комсомолец», Дмитровское шоссе (80)";"37.57003659";"55.84090834";"Дмитровское шоссе";"Северный административный округ";"Тимирязевский район";"А114; А194; А215; А466; А677; АМ10";"К/т Комсомолец";"";"да";"ГУП «Мосгортранс»";"активна";"889076509";"{type=Point, coordinates=[37.57003659, 55.84090834]}";
"81";"«Педагогический колледж», Большая Академическая улица (81)";"37.55288338";"55.84201028";"Большая Академическая улица";"Северный административный округ";"район Коптево";"А114; А123; А179; А204; А282; А461; Тб57; А591; А87; АТ19";"Педагогический колледж";"";"да";"ГУП «Мосгортранс»";"активна";"889076510";"{type=Point, coordinates=[37.55288338, 55.84201028]}";
"82";"«Университет Природообустройства», Большая Академическая улица (82)";"37.54470218";"55.83894722";"Большая Академическая улица";"Северный административный округ";"район Коптево";"А114; А179; А204; А282; А461; Тб57; А591; АТ19";"Университет Природообустройства";"";"да";"ГУП «Мосгортранс»";"активна";"889076511";"{type=Point, coordinates=[37.54470218, 55.83894722]}";
"83";"«Роддом № 27», Большая Академическая улица (83)";"37.53038275";"55.8289194";"Большая Академическая улица";"Северный административный округ";"район Коптево";"А179; А204; А282; А461; Тб57; А591; АТ19";"Роддом № 27";"";"да";"ГУП «Мосгортранс»";"активна";"889076512";"{type=Point, coordinates=[37.53038275, 55.8289194]}";
"84";"«Роддом № 27», Большая Академическая улица (84)";"37.53085818";"55.82911305";"Большая Академическая улица";"Северный административный округ";"район Коптево";"А179; А204; А282; А461; Тб57; А591; АТ19";"Роддом № 27";"";"да";"ГУП «Мосгортранс»";"активна";"889076513";"{type=Point, coordinates=[37.53085818, 55.82911305]}";
"85";"«Университет Природообустройства», Большая Академическая улица (85)";"37.54499163";"55.83864991";"Большая Академическая улица";"Северный административный округ";"Тимирязевский район";"А114; А179; А204; А282; А461; Тб57; А591; АТ19";"Университет Природообустройства";"";"да";"ГУП «Мосгортранс»";"активна";"889076514";"{type=Point, coordinates=[37.54499163, 55.83864991]}";
"86";"«Педагогический колледж», Большая Академическая улица (86)";"37.5546848";"55.84225467";"Большая Академическая улица";"Северный административный округ";"Тимирязевский район";"А114; А123; А179; А204; А282; А461; Тб57; А591; А87; АТ19";"Педагогический колледж";"";"да";"ГУП «Мосгортранс»";"активна";"889076515";"{type=Point, coordinates=[37.5546848, 55.84225467]}";
"87";"«Метро Петровско-Разумовская», улица Линии Октябрьской Железной Дороги (87)";"37.5755751";"55.83730911";"улица Линии Октябрьской Железной Дороги";"Северный административный округ";"Тимирязевский район";"А194; А215";"Метро Петровско-Разумовская";"";"да";"ГУП «Мосгортранс»";"активна";"889076516";"{type=Point, coordinates=[37.5755751, 55.83730911]}";
"91";"«Метро Селигерская», Коровинское шоссе (91)";"37.54477895";"55.86556347";"Коровинское шоссе";"Северный административный округ";"Бескудниковский район";"А191; А194; А215К; А591; А656; А672; АТ56";"Метро Селигерская";"";"да";"ГУП «Мосгортранс»";"активна";"889076517";"{type=Point, coordinates=[37.54477895, 55.86556347]}";
"92";"«Селигерская ул.», Коровинское шоссе (92)";"37.54054356";"55.86754868";"Коровинское шоссе";"Северный административный округ";"Бескудниковский район";"А191; А194; А215К; А591; А656; А672; АТ56";"Селигерская ул.";"";"да";"ГУП «Мосгортранс»";"активна";"889076518";"{type=Point, coordinates=[37.54054356, 55.86754868]}";
"93";"«Ин-т Микрохирургии глаза», Коровинское шоссе (93)";"37.53539092";"55.86998419";"Коровинское шоссе";"Северный административный округ";"Бескудниковский район";"А191; А194; А215К; А591; А656; А672; АТ56";"Ин-т Микрохирургии глаза";"";"да";"ГУП «Мосгортранс»";"активна";"889076519";"{type=Point, coordinates=[37.53539092, 55.86998419]}";
"94";"«Колледж № 7», Клязьминская улица (94)";"37.51853547";"55.88351247";"Клязьминская улица";"Северный административный округ";"Дмитровский район";"А191; А194; А352; А571; А665";"Колледж № 7";"";"да";"ГУП «Мосгортранс»";"активна";"889076520";"{type=Point, coordinates=[37.51853547, 55.88351247]}";
"95";"«Ангарская ул.», Ангарская улица (95)";"37.5202723";"55.87759056";"Ангарская улица";"Северный административный округ";"район Западное Дегунино";"А191; А270; А352; А571; А591; А665; А928";"Ангарская ул.";"";"да";"ГУП «Мосгортранс»";"активна";"889076521";"{type=Point, coordinates=[37.5202723, 55.87759056]}";
"96";"«Мкр. Западное Дегунино», Ангарская улица (96)";"37.51697285";"55.87600214";"Ангарская улица";"Северный административный округ";"район Западное Дегунино";"А191; А270; А352; А571; А591; А665; А928";"Мкр. Западное Дегунино";"";"да";"ГУП «Мосгортранс»";"активна";"889076522";"{type=Point, coordinates=[37.51697285, 55.87600214]}";
"97";"«Весенняя ул.», Ангарская улица (97)";"37.51498184";"55.87432548";"Ангарская улица";"Северный административный округ";"район Западное Дегунино";"А191; А270; А352; А571; А591; А665; А928";"Весенняя ул.";"";"да";"ГУП «Мосгортранс»";"активна";"889076523";"{type=Point, coordinates=[37.51498184, 55.87432548]}";
"98";"«Ст. Ховрино», Путейская улица (98)";"37.51076263";"55.86996961";"Путейская улица";"Северный административный округ";"район Западное Дегунино";"А154; А191; А215; А215К; А270; А352; А571; А591; А665; А748; А928";"Ст. Ховрино";"";"нет";"";"активна";"889076524";"{type=Point, coordinates=[37.51076263, 55.86996961]}";
"99";"«Онкологический диспансер», Старопетровский проезд (99)";"37.50259018";"55.82324046";"Старопетровский проезд";"Северный административный округ";"Войковский район";"А114; А621; А888; А90";"Онкологический диспансер";"";"да";"ГУП «Мосгортранс»";"активна";"889076525";"{type=Point, coordinates=[37.50259018, 55.82324046]}";
"100";"«Старопетровский пр.», Старопетровский проезд (100)";"37.50872434";"55.82466889";"Старопетровский проезд";"Северный административный округ";"Войковский район";"А114; А621; А888; А90";"Старопетровский пр.";"";"да";"ГУП «Мосгортранс»";"активна";"889076526";"{type=Point, coordinates=[37.50872434, 55.82466889]}";
"101";"«Ф-ка игрушек», улица Клары Цеткин (101)";"37.51170757";"55.82979654";"улица Клары Цеткин";"Северный административный округ";"район Коптево";"А621; А90";"Ф-ка игрушек";"";"да";"ГУП «Мосгортранс»";"активна";"889076527";"{type=Point, coordinates=[37.51170757, 55.82979654]}";
"103";"«Диспансер», Михалковская улица (103)";"37.50611432";"55.83722166";"Михалковская улица";"Северный административный округ";"район Коптево";"А123; А565; А621; А90";"Диспансер";"";"да";"ГУП «Мосгортранс»";"активна";"889076528";"{type=Point, coordinates=[37.50611432, 55.83722166]}";
"104";"«Электромеханический колледж», Михалковская улица (104)";"37.51312248";"55.83772474";"Михалковская улица";"Северный административный округ";"район Коптево";"А123; А565; А621; А90";"Электромеханический колледж";"";"да";"ГУП «Мосгортранс»";"активна";"889076529";"{type=Point, coordinates=[37.51312248, 55.83772474]}";
"105";"«Ф-ка им. Петра Алексеева», Михалковская улица (105)";"37.51644356";"55.8395005";"Михалковская улица";"Северный административный округ";"район Коптево";"А123; А565; А621; А90";"Ф-ка им. Петра Алексеева";"";"да";"ГУП «Мосгортранс»";"активна";"889076530";"{type=Point, coordinates=[37.51644356, 55.8395005]}";
"106";"«Ст. Коптево», Михалковская улица (106)";"37.51935117";"55.84121915";"Михалковская улица";"Северный административный округ";"район Коптево";"А123; А565; А621; А90";"Ст. Коптево";"";"да";"ГУП «Мосгортранс»";"активна";"889076531";"{type=Point, coordinates=[37.51935117, 55.84121915]}";
"107";"«Онежская ул. - Колледж», Онежская улица (107)";"37.52181196";"55.84540799";"Онежская улица";"Северный административный округ";"Головинский район";"А123; А139; А22; А565; А595; А621; А72; А801; А888; А90";"Онежская ул. - Колледж";"";"да";"ГУП «Мосгортранс»";"активна";"889076532";"{type=Point, coordinates=[37.52181196, 55.84540799]}";
"108";"«3-й Лихачевский пер.», Онежская улица (108)";"37.52077371";"55.84940542";"Онежская улица";"Северный административный округ";"Головинский район";"А139; А565; А595; А621; А72; А801; А888; А90";"3-й Лихачевский пер.";"";"да";"ГУП «Мосгортранс»";"активна";"889076533";"{type=Point, coordinates=[37.52077371, 55.84940542]}";
"109";"«Онежская ул., 19», Онежская улица (109)";"37.5192826";"55.85217697";"Онежская улица";"Северный административный округ";"Головинский район";"А139; А565; А595; А621; А72; А801; А888; А90";"Онежская ул., 19";"";"да";"ГУП «Мосгортранс»";"активна";"889076534";"{type=Point, coordinates=[37.5192826, 55.85217697]}";
"110";"«Солнечногорская ул.», Онежская улица (110)";"37.51306166";"55.85651928";"Онежская улица";"Северный административный округ";"Головинский район";"А621; А65; А65К; А801; А90";"Солнечногорская ул.";"";"да";"ГУП «Мосгортранс»";"активна";"889076535";"{type=Point, coordinates=[37.51306166, 55.85651928]}";
"111";"«Флотская ул.», Онежская улица (111)";"37.50880466";"55.85959686";"Онежская улица";"Северный административный округ";"Головинский район";"А500; А65; А65К; А801; А90";"Флотская ул.";"";"да";"ГУП «Мосгортранс»";"активна";"889076536";"{type=Point, coordinates=[37.50880466, 55.85959686]}";
"112";"«Фестивальная ул.», Петрозаводская улица (112)";"37.50413371";"55.86302215";"Петрозаводская улица";"Северный административный округ";"район Ховрино";"А233; А594; А801; А90";"Фестивальная ул.";"";"да";"ГУП «Мосгортранс»";"активна";"889076537";"{type=Point, coordinates=[37.50413371, 55.86302215]}";
"113";"«М-н Книги», Петрозаводская улица (113)";"37.50026617";"55.86474198";"Петрозаводская улица";"Северный административный округ";"район Ховрино";"А233; А594; А801; А90";"М-н Книги";"";"да";"ГУП «Мосгортранс»";"активна";"889076538";"{type=Point, coordinates=[37.50026617, 55.86474198]}";
"114";"«Аптека», Петрозаводская улица (114)";"37.49690351";"55.86590354";"Петрозаводская улица";"Северный административный округ";"район Ховрино";"А233; А594; А801; А90";"Аптека";"";"да";"ГУП «Мосгортранс»";"активна";"889076539";"{type=Point, coordinates=[37.49690351, 55.86590354]}";
"115";"«Петрозаводская ул.», Петрозаводская улица (115)";"37.49047802";"55.86710975";"Петрозаводская улица";"Северный административный округ";"район Ховрино";"Тб58; А801; А90";"Петрозаводская ул.";"";"да";"ГУП «Мосгортранс»";"активна";"889076540";"{type=Point, coordinates=[37.49047802, 55.86710975]}";
"116";"«15-й таксомоторный парк», Беломорская улица (116)";"37.4835904385";"55.8670126721";"Беломорская улица";"Северный административный округ";"район Ховрино";"Тб58; А90";"15-й таксомоторный парк";"";"да";"ГУП «Мосгортранс»";"активна";"889076541";"{type=Point, coordinates=[37.4835904385, 55.8670126721]}";
"117";"«Экономический университет», Смольная улица (117)";"37.47723461";"55.86516218";"Смольная улица";"Северный административный округ";"район Левобережный";"А173; А199; А270; А338; А400; Тб58; А739; А851; А90";"Экономический университет";"";"да";"ГУП «Мосгортранс»";"активна";"889076542";"{type=Point, coordinates=[37.47723461, 55.86516218]}";
"118";"«Смольная ул., 45», Смольная улица (118)";"37.47967752";"55.86286328";"Смольная улица";"Северный административный округ";"район Левобережный";"А173; А199; А270; А338; Тб58; А739; А851; А90";"Смольная ул., 45";"";"да";"ГУП «Мосгортранс»";"активна";"889076543";"{type=Point, coordinates=[37.47967752, 55.86286328]}";
"119";"«Школа им. Марш. Говорова», Смольная улица (119)";"37.48150745";"55.86127796";"Смольная улица";"Северный административный округ";"район Левобережный";"А173; А199; А270; А338; Тб58; А739; А851; А90";"Школа им. Марш. Говорова";"";"да";"ГУП «Мосгортранс»";"активна";"889076544";"{type=Point, coordinates=[37.48150745, 55.86127796]}";
"120";"«Смольная ул.», Фестивальная улица (120)";"37.48466984";"55.8581037";"Фестивальная улица";"Северный административный округ";"район Левобережный";"А138; А173; А188; А199; А200; А233; А270; А284; А338; А451; А559; Тб58; А739; А745; А801; А851; А857; А90";"Смольная ул.";"";"да";"ГУП «Мосгортранс»";"активна";"889076545";"{type=Point, coordinates=[37.48466984, 55.8581037]}";
"121";"«Автокомбинат № 3», улица Линии Октябрьской Железной Дороги (121)";"37.56315646";"55.84366117";"улица Линии Октябрьской Железной Дороги";"Северный административный округ";"Тимирязевский район";"А114; А123; А204; А282; А461; АТ19";"Автокомбинат № 3";"";"нет";"";"активна";"889076546";"{type=Point, coordinates=[37.56315646, 55.84366117]}";
"122";"«Учебный центр», Клязьминская улица (122)";"37.52235692";"55.88559693";"Клязьминская улица";"Северный административный округ";"Дмитровский район";"А191; А194; А200; А352; А571; А665";"Учебный центр";"";"да";"ГУП «Мосгортранс»";"активна";"889076547";"{type=Point, coordinates=[37.52235692, 55.88559693]}";
"123";"«Клязьминская ул.», Ангарская улица (123)";"37.5257866";"55.88619486";"Ангарская улица";"Северный административный округ";"Дмитровский район";"А191; А194; А672";"Клязьминская ул.";"";"да";"ГУП «Мосгортранс»";"активна";"889076548";"{type=Point, coordinates=[37.5257866, 55.88619486]}";
"124";"«Храм Матроны Московской», Ангарская улица (124)";"37.52949825";"55.88299191";"Ангарская улица";"Северный административный округ";"Дмитровский район";"А191; А194; А672; А928";"Храм Матроны Московской";"";"да";"ГУП «Мосгортранс»";"активна";"889076549";"{type=Point, coordinates=[37.52949825, 55.88299191]}";
"125";"«Ангарская ул., 49», Ангарская улица (125)";"37.5289602";"55.88104652";"Ангарская улица";"Северный административный округ";"Дмитровский район";"А191; А194; А672; А928";"Ангарская ул., 49";"";"да";"ГУП «Мосгортранс»";"активна";"889076550";"{type=Point, coordinates=[37.5289602, 55.88104652]}";
"126";"«Ангарская ул.», Коровинское шоссе (126)";"37.52317839";"55.87781596";"Коровинское шоссе";"Северный административный округ";"район Западное Дегунино";"А114; А191; А194; А591; А656; А672; А799; АТ56";"Ангарская ул.";"";"да";"ГУП «Мосгортранс»";"активна";"889076551";"{type=Point, coordinates=[37.52317839, 55.87781596]}";
"127";"«Протезный з-д», Коровинское шоссе (127)";"37.52851198";"55.87373993";"Коровинское шоссе";"Северный административный округ";"Дмитровский район";"А191; А194; А215; А215К; А591; А656; А672; А92; АТ56";"Протезный з-д";"";"да";"ГУП «Мосгортранс»";"активна";"889076552";"{type=Point, coordinates=[37.52851198, 55.87373993]}";
"128";"«Талдомская ул.», Коровинское шоссе (128)";"37.5259288";"55.87563883";"Коровинское шоссе";"Северный административный округ";"Дмитровский район";"А114; А191; А194; А591; А656; А672; А799; АТ56";"Талдомская ул.";"";"да";"ГУП «Мосгортранс»";"активна";"889076553";"{type=Point, coordinates=[37.5259288, 55.87563883]}";
"129";"«Ангарская ул.», Ангарская улица (129)";"37.52488287";"55.87892817";"Ангарская улица";"Северный административный округ";"Дмитровский район";"А191; А194; А672; А928";"Ангарская ул.";"";"да";"ГУП «Мосгортранс»";"активна";"889076554";"{type=Point, coordinates=[37.52488287, 55.87892817]}";
"130";"«Ангарская ул., 49», Ангарская улица (130)";"37.52936392";"55.88135692";"Ангарская улица";"Северный административный округ";"Дмитровский район";"А191; А194; А672; А928";"Ангарская ул., 49";"";"да";"ГУП «Мосгортранс»";"активна";"889076555";"{type=Point, coordinates=[37.52936392, 55.88135692]}";
"131";"«Храм Матроны Московской», Ангарская улица (131)";"37.53007852";"55.88382937";"Ангарская улица";"Северный административный округ";"Дмитровский район";"А191; А194; А672; А928";"Храм Матроны Московской";"";"да";"ГУП «Мосгортранс»";"активна";"889076556";"{type=Point, coordinates=[37.53007852, 55.88382937]}";
"132";"«Клязьминская ул.», Ангарская улица (132)";"37.52535911";"55.88657586";"Ангарская улица";"Северный административный округ";"Дмитровский район";"А191; А194; А672";"Клязьминская ул.";"";"да";"ГУП «Мосгортранс»";"активна";"889076557";"{type=Point, coordinates=[37.52535911, 55.88657586]}";
"133";"«Учебный центр», Клязьминская улица (133)";"37.52128998";"55.88532526";"Клязьминская улица";"Северный административный округ";"Дмитровский район";"А191; А194; А200; А352; А571; А665";"Учебный центр";"";"да";"ГУП «Мосгортранс»";"активна";"889076558";"{type=Point, coordinates=[37.52128998, 55.88532526]}";
"134";"«Школа им. Марш. Говорова», Смольная улица (134)";"37.48215583";"55.86106097";"Смольная улица";"Северный административный округ";"район Ховрино";"А138; А270; А338; А90";"Школа им. Марш. Говорова";"";"да";"ГУП «Мосгортранс»";"активна";"889076559";"{type=Point, coordinates=[37.48215583, 55.86106097]}";
"135";"«Смольная ул., 45», Смольная улица (135)";"37.48021163";"55.86265788";"Смольная улица";"Северный административный округ";"район Ховрино";"А138; А270; А338; А90";"Смольная ул., 45";"";"да";"ГУП «Мосгортранс»";"активна";"889076560";"{type=Point, coordinates=[37.48021163, 55.86265788]}";
"136";"«15-й таксомоторный парк», Петрозаводская улица (136)";"37.48607811";"55.86682693";"Петрозаводская улица";"Северный административный округ";"район Ховрино";"Тб58; А801; А90";"15-й таксомоторный парк";"";"да";"ГУП «Мосгортранс»";"активна";"889076561";"{type=Point, coordinates=[37.48607811, 55.86682693]}";
"137";"«Петрозаводская ул.», Петрозаводская улица (137)";"37.49280228";"55.86659387";"Петрозаводская улица";"Северный административный округ";"район Ховрино";"А233; А594; А801; А90";"Петрозаводская ул.";"";"да";"ГУП «Мосгортранс»";"активна";"889085252";"{type=Point, coordinates=[37.49280228, 55.86659387]}";
"138";"«Аптека», Петрозаводская улица (138)";"37.49827389";"55.86519568";"Петрозаводская улица";"Северный административный округ";"район Ховрино";"А233; А594; А801; А90";"Аптека";"";"да";"ГУП «Мосгортранс»";"активна";"889085253";"{type=Point, coordinates=[37.49827389, 55.86519568]}";
"139";"«М-н Книги», Петрозаводская улица (139)";"37.50203569";"55.8638077";"Петрозаводская улица";"Северный административный округ";"район Ховрино";"А233; А594; А801; А90";"М-н Книги";"";"да";"ГУП «Мосгортранс»";"активна";"889085254";"{type=Point, coordinates=[37.50203569, 55.8638077]}";
"140";"«Фестивальная ул.», Онежская улица (140)";"37.50578236";"55.86149281";"Онежская улица";"Северный административный округ";"район Ховрино";"А500; А801; А90";"Фестивальная ул.";"";"да";"ГУП «Мосгортранс»";"активна";"889085255";"{type=Point, coordinates=[37.50578236, 55.86149281]}";
"141";"«Флотская ул.», Онежская улица (141)";"37.50941753";"55.85883776";"Онежская улица";"Северный административный округ";"район Ховрино";"А500; А801; А90";"Флотская ул.";"";"да";"ГУП «Мосгортранс»";"активна";"889085256";"{type=Point, coordinates=[37.50941753, 55.85883776]}";
"142";"«Солнечногорская ул.», Онежская улица (142)";"37.51406707";"55.85536084";"Онежская улица";"Северный административный округ";"Головинский район";"А565; А621; А65; А65К; А801; А90";"Солнечногорская ул.";"";"да";"ГУП «Мосгортранс»";"активна";"889085257";"{type=Point, coordinates=[37.51406707, 55.85536084]}";
"143";"«Онежская ул., 19», Онежская улица (143)";"37.51918742";"55.85154723";"Онежская улица";"Северный административный округ";"Головинский район";"А139; А565; А595; А621; А72; А801; А888; А90";"Онежская ул., 19";"";"да";"ГУП «Мосгортранс»";"активна";"889085258";"{type=Point, coordinates=[37.51918742, 55.85154723]}";
"144";"«Онежская ул. - Колледж», Онежская улица (144)";"37.52157813";"55.84409988";"Онежская улица";"Северный административный округ";"Головинский район";"А123; А22; А565; А595; А621; А72; А801; А888; А90";"Онежская ул. - Колледж";"";"да";"ГУП «Мосгортранс»";"активна";"889085259";"{type=Point, coordinates=[37.52157813, 55.84409988]}";
"145";"«Ст. Коптево», Михалковская улица (145)";"37.51813253";"55.84121009";"Михалковская улица";"Северный административный округ";"Головинский район";"А123; А565; А621; А90";"Ст. Коптево";"";"да";"ГУП «Мосгортранс»";"активна";"889085260";"{type=Point, coordinates=[37.51813253, 55.84121009]}";
"146";"«Ф-ка им. Петра Алексеева», Михалковская улица (146)";"37.51580279";"55.83910127";"Михалковская улица";"Северный административный округ";"Головинский район";"А123; А565; А621; А90";"Ф-ка им. Петра Алексеева";"";"да";"ГУП «Мосгортранс»";"активна";"889085261";"{type=Point, coordinates=[37.51580279, 55.83910127]}";
"147";"«Электромеханический колледж», Михалковская улица (147)";"37.51182132";"55.83778569";"Михалковская улица";"Северный административный округ";"Головинский район";"А123; А565; А621; А90";"Электромеханический колледж";"";"да";"ГУП «Мосгортранс»";"активна";"889085262";"{type=Point, coordinates=[37.51182132, 55.83778569]}";
"150";"«Ф-ка игрушек», улица Клары Цеткин (150)";"37.51240141";"55.82918223";"улица Клары Цеткин";"Северный административный округ";"Войковский район";"А621; А90";"Ф-ка игрушек";"";"да";"ГУП «Мосгортранс»";"активна";"889085263";"{type=Point, coordinates=[37.51240141, 55.82918223]}";
"151";"«Старопетровский пр.», Старопетровский проезд (151)";"37.50758103";"55.82460143";"Старопетровский проезд";"Северный административный округ";"Войковский район";"А114; А621; А888; А90";"Старопетровский пр.";"";"да";"ГУП «Мосгортранс»";"активна";"889085264";"{type=Point, coordinates=[37.50758103, 55.82460143]}";
"152";"«Онкологический диспансер», Старопетровский проезд (152)";"37.50344704";"55.82364048";"Старопетровский проезд";"Северный административный округ";"Войковский район";"А114; А621; А888; А90";"Онкологический диспансер";"";"да";"ГУП «Мосгортранс»";"активна";"889085265";"{type=Point, coordinates=[37.50344704, 55.82364048]}";
"154";"«Коровинское ш.», Коровинское шоссе (154)";"37.51857144";"55.88231105";"Коровинское шоссе";"Северный административный округ";"район Западное Дегунино";"А114; А191; А270; А352; А571; А656; А665; А799; АТ56";"Коровинское ш.";"";"да";"ГУП «Мосгортранс»";"активна";"889085266";"{type=Point, coordinates=[37.51857144, 55.88231105]}";
"155";"«Талдомская ул.», улица 800-летия Москвы (155)";"37.52852678";"55.8751219";"улица 800-летия Москвы";"Северный административный округ";"Дмитровский район";"А114; А154; А284; А748; А799; А857; А92";"Талдомская ул.";"";"да";"ГУП «Мосгортранс»";"активна";"889085267";"{type=Point, coordinates=[37.52852678, 55.8751219]}";
"156";"«Ин-т Микрохирургии глаза», Бескудниковский бульвар (156)";"37.53908121";"55.87320802";"Бескудниковский бульвар";"Северный административный округ";"Бескудниковский район";"А114; А154; А167; А206к; АМ10";"Ин-т Микрохирургии глаза";"";"да";"ГУП «Мосгортранс»";"активна";"889085268";"{type=Point, coordinates=[37.53908121, 55.87320802]}";
"157";"«Муз. школа», Бескудниковский бульвар (157)";"37.5438328";"55.87348434";"Бескудниковский бульвар";"Северный административный округ";"Бескудниковский район";"А114; А154; А167; А206к; АМ10";"Муз. школа";"";"да";"ГУП «Мосгортранс»";"активна";"889085269";"{type=Point, coordinates=[37.5438328, 55.87348434]}";
"158";"«Аптека», Бескудниковский бульвар (158)";"37.5524069";"55.87321427";"Бескудниковский бульвар";"Северный административный округ";"Бескудниковский район";"А114; А154; А167; АМ10";"Аптека";"";"да";"ГУП «Мосгортранс»";"активна";"889085270";"{type=Point, coordinates=[37.5524069, 55.87321427]}";
"159";"«Школа № 656», Бескудниковский бульвар (159)";"37.554861";"55.87114913";"Бескудниковский бульвар";"Северный административный округ";"Бескудниковский район";"А114; А154; А167; АМ10";"Школа № 656";"";"да";"ГУП «Мосгортранс»";"активна";"889085271";"{type=Point, coordinates=[37.554861, 55.87114913]}";
"160";"«Рогачевский пер.», Бескудниковский бульвар (160)";"37.55767154";"55.86750227";"Бескудниковский бульвар";"Северный административный округ";"Бескудниковский район";"А114; А154; А167; АМ10";"Рогачевский пер.";"";"да";"ГУП «Мосгортранс»";"активна";"889085272";"{type=Point, coordinates=[37.55767154, 55.86750227]}";
"161";"«Бескудниковский пер.», Бескудниковский бульвар (161)";"37.56080902";"55.86350936";"Бескудниковский бульвар";"Северный административный округ";"Бескудниковский район";"А114; А154; А167; Тб36; АМ10; АТ47";"Бескудниковский пер.";"";"да";"ГУП «Мосгортранс»";"активна";"889085273";"{type=Point, coordinates=[37.56080902, 55.86350936]}";
"162";"«Торговый центр», Бескудниковский бульвар (162)";"37.5619061";"55.86192215";"Бескудниковский бульвар";"Северный административный округ";"Бескудниковский район";"А114; А154; А167; А466";"Торговый центр";"";"да";"ГУП «Мосгортранс»";"активна";"889085274";"{type=Point, coordinates=[37.5619061, 55.86192215]}";
"163";"«Роддом № 27», Коптевский бульвар (163)";"37.52868045";"55.83113889";"Коптевский бульвар";"Северный административный округ";"район Коптево";"А114";"Роддом № 27";"";"нет";"";"активна";"889085275";"{type=Point, coordinates=[37.52868045, 55.83113889]}";
"164";"«Коптевский рынок», Коптевский бульвар (164)";"37.52185322";"55.83295193";"Коптевский бульвар";"Северный административный округ";"район Коптево";"А114";"Коптевский рынок";"";"да";"ГУП «Мосгортранс»";"активна";"889085276";"{type=Point, coordinates=[37.52185322, 55.83295193]}";
"165";"«Коптевская ул.», Коптевская улица (165)";"37.51809726";"55.82930661";"Коптевская улица";"Северный административный округ";"район Коптево";"А114; А888";"Коптевская ул.";"";"да";"ГУП «Мосгортранс»";"активна";"889085277";"{type=Point, coordinates=[37.51809726, 55.82930661]}";
"166";"«Коптевская ул.», Коптевская улица (166)";"37.51910841";"55.83087861";"Коптевская улица";"Северный административный округ";"район Коптево";"А114; А888";"Коптевская ул.";"";"да";"ГУП «Мосгортранс»";"активна";"889085278";"{type=Point, coordinates=[37.51910841, 55.83087861]}";
"167";"«Коптевский рынок», Коптевский бульвар (167)";"37.52114845";"55.83208078";"Коптевский бульвар";"Северный административный округ";"район Коптево";"А114";"Коптевский рынок";"";"да";"ГУП «Мосгортранс»";"активна";"889085279";"{type=Point, coordinates=[37.52114845, 55.83208078]}";
"168";"«Роддом № 27», Коптевский бульвар (168)";"37.52758635";"55.83028842";"Коптевский бульвар";"Северный административный округ";"район Коптево";"А114";"Роддом № 27";"";"да";"ГУП «Мосгортранс»";"активна";"889085280";"{type=Point, coordinates=[37.52758635, 55.83028842]}";
"169";"«Метро Петровско-Разумовская», Локомотивный проезд (169)";"37.57571844";"55.8372403";"Локомотивный проезд";"Северный административный округ";"Тимирязевский район";"А114; А206к; А282; А994";"Метро Петровско-Разумовская";"";"да";"ГУП «Мосгортранс»";"активна";"889085281";"{type=Point, coordinates=[37.57571844, 55.8372403]}";
"170";"«К/т Комсомолец», Дмитровское шоссе (170)";"37.57029254";"55.84221842";"Дмитровское шоссе";"Северный административный округ";"Тимирязевский район";"А114; А194; А215; А466; А692; А82; А994; АТ47; АТ56; АТ78";"К/т Комсомолец";"";"да";"ГУП «Мосгортранс»";"активна";"889085282";"{type=Point, coordinates=[37.57029254, 55.84221842]}";
"171";"«Нижн. Лихоборы», Дмитровское шоссе (171)";"37.56848803";"55.84699926";"Дмитровское шоссе";"Северный административный округ";"Тимирязевский район";"А114; А154; А179; А194; А215; А282; А466; А63; А677К; А692; А82; А994; АТ78";"Нижн. Лихоборы";"";"да";"ГУП «Мосгортранс»";"активна";"889085283";"{type=Point, coordinates=[37.56848803, 55.84699926]}";
"172";"«7-й автобусный парк», Дмитровское шоссе (172)";"37.5655145";"55.85171839";"Дмитровское шоссе";"Северный административный округ";"Бескудниковский район";"А114; А466; А677; А677К; А692; А82; АМ10";"7-й автобусный парк";"";"да";"ГУП «Мосгортранс»";"активна";"889085284";"{type=Point, coordinates=[37.5655145, 55.85171839]}";
"173";"«Торговый центр», Бескудниковский бульвар (173)";"37.56167358";"55.86285461";"Бескудниковский бульвар";"Северный административный округ";"Бескудниковский район";"А114; А154; А167; АМ10";"Торговый центр";"";"да";"ГУП «Мосгортранс»";"активна";"889085285";"{type=Point, coordinates=[37.56167358, 55.86285461]}";
"174";"«Бескудниковский пер.», Бескудниковский бульвар (174)";"37.56012464";"55.86490713";"Бескудниковский бульвар";"Северный административный округ";"Бескудниковский район";"А114; А154; А167; АМ10";"Бескудниковский пер.";"";"да";"ГУП «Мосгортранс»";"активна";"889085286";"{type=Point, coordinates=[37.56012464, 55.86490713]}";
"175";"«Рогачевский пер.», Бескудниковский бульвар (175)";"37.55664809";"55.86932066";"Бескудниковский бульвар";"Северный административный округ";"Бескудниковский район";"А114; А154; А167; АМ10";"Рогачевский пер.";"";"да";"ГУП «Мосгортранс»";"активна";"889085287";"{type=Point, coordinates=[37.55664809, 55.86932066]}";
"176";"«Школа № 656», Бескудниковский бульвар (176)";"37.55392499";"55.8726825";"Бескудниковский бульвар";"Северный административный округ";"Бескудниковский район";"А114; А154; А167; АМ10";"Школа № 656";"";"да";"ГУП «Мосгортранс»";"активна";"889085288";"{type=Point, coordinates=[37.55392499, 55.8726825]}";
"177";"«Аптека», Бескудниковский бульвар (177)";"37.5508956";"55.87378923";"Бескудниковский бульвар";"Северный административный округ";"Бескудниковский район";"А114; А154; А167; АМ10";"Аптека";"";"да";"ГУП «Мосгортранс»";"активна";"889085289";"{type=Point, coordinates=[37.5508956, 55.87378923]}";
"178";"«Бескудниково», Бескудниковский бульвар (178)";"37.54640192";"55.87383774";"Бескудниковский бульвар";"Северный административный округ";"Бескудниковский район";"А114; А154; А167; А206к; АМ10";"Бескудниково";"";"да";"ГУП «Мосгортранс»";"активна";"889085290";"{type=Point, coordinates=[37.54640192, 55.87383774]}";
"179";"«Муз. школа», Бескудниковский бульвар (179)";"37.54269997";"55.87363021";"Бескудниковский бульвар";"Северный административный округ";"Бескудниковский район";"А114; А154; А167; А206к; АМ10";"Муз. школа";"";"да";"ГУП «Мосгортранс»";"активна";"889085291";"{type=Point, coordinates=[37.54269997, 55.87363021]}";
"180";"«Ин-т Микрохирургии глаза», Бескудниковский бульвар (180)";"37.53715086";"55.87348554";"Бескудниковский бульвар";"Северный административный округ";"Бескудниковский район";"А114; А154; А167; А206к; АМ10";"Ин-т Микрохирургии глаза";"";"да";"ГУП «Мосгортранс»";"активна";"889085292";"{type=Point, coordinates=[37.53715086, 55.87348554]}";
"181";"«Коровинское ш.», Коровинское шоссе (181)";"37.51786602";"55.88341325";"Коровинское шоссе";"Северный административный округ";"Дмитровский район";"А200; А270; А656; А799";"Коровинское ш.";"";"да";"ГУП «Мосгортранс»";"активна";"889085293";"{type=Point, coordinates=[37.51786602, 55.88341325]}";
"182";"«Кронштадтский бульв.», Кронштадтский бульвар (182)";"37.49676253";"55.84295524";"Кронштадтский бульвар";"Северный административный округ";"Головинский район";"А123; А139; А565; А594; А595; А65; А65К; А698; А72; А888";"Кронштадтский бульв.";"";"да";"ГУП «Мосгортранс»";"активна";"889085294";"{type=Point, coordinates=[37.49676253, 55.84295524]}";
"183";"«Гимназия № 1583», Кронштадтский бульвар (183)";"37.49976105";"55.84369948";"Кронштадтский бульвар";"Северный административный округ";"Головинский район";"А123; А139; А565; А595; А65; А65К; А72; А888";"Гимназия № 1583";"";"да";"ГУП «Мосгортранс»";"активна";"889085295";"{type=Point, coordinates=[37.49976105, 55.84369948]}";
"184";"«Нарвская ул. - Университет Гражданской Авиации», Кронштадтский бульвар (184)";"37.50222806";"55.84379443";"Кронштадтский бульвар";"Северный административный округ";"Головинский район";"А123; А565";"Нарвская ул. - Университет Гражданской Авиации";"";"да";"ГУП «Мосгортранс»";"активна";"889085296";"{type=Point, coordinates=[37.50222806, 55.84379443]}";
"185";"«Детский сад», Нарвская улица (185)";"37.50332207";"55.84116825";"Нарвская улица";"Северный административный округ";"Головинский район";"А123; А565";"Детский сад";"";"да";"ГУП «Мосгортранс»";"активна";"889085297";"{type=Point, coordinates=[37.50332207, 55.84116825]}";
"186";"«3-й Лихачевский пер.», 3-й Лихачёвский переулок (186)";"37.52188032";"55.84887376";"3-й Лихачёвский переулок";"Северный административный округ";"Головинский район";"А123; А22";"3-й Лихачевский пер.";"";"да";"ГУП «Мосгортранс»";"активна";"889085298";"{type=Point, coordinates=[37.52188032, 55.84887376]}";
"187";"«База механизации», 4-й Лихачёвский переулок (187)";"37.52713334";"55.85108758";"4-й Лихачёвский переулок";"Северный административный округ";"Головинский район";"А123; А22";"База механизации";"";"да";"ГУП «Мосгортранс»";"активна";"889085299";"{type=Point, coordinates=[37.52713334, 55.85108758]}";
"188";"«Лихоборская наб. - Хим-тех. з-д», Автомоторная улица (188)";"37.5305915";"55.8527395";"Автомоторная улица";"Северный административный округ";"Головинский район";"А123; А22";"Лихоборская наб. - Хим-тех. з-д";"";"да";"ГУП «Мосгортранс»";"активна";"889085300";"{type=Point, coordinates=[37.5305915, 55.8527395]}";
"189";"«Автомоторная ул.», Автомоторная улица (189)";"37.53651595";"55.84925437";"Автомоторная улица";"Северный административный округ";"Головинский район";"А123; А22";"Автомоторная ул.";"";"да";"ГУП «Мосгортранс»";"активна";"889085301";"{type=Point, coordinates=[37.53651595, 55.84925437]}";
"190";"«НАМИ», Автомоторная улица (190)";"37.54183581";"55.84622854";"Автомоторная улица";"Северный административный округ";"Головинский район";"А139";"НАМИ";"";"нет";"";"активна";"889085302";"{type=Point, coordinates=[37.54183581, 55.84622854]}";
"191";"«Кадетский корпус полиции», 4-й Новомихалковский проезд (191)";"37.54339623";"55.84284476";"4-й Новомихалковский проезд";"Северный административный округ";"район Коптево";"А123; А87";"Кадетский корпус полиции";"";"да";"ГУП «Мосгортранс»";"активна";"889085303";"{type=Point, coordinates=[37.54339623, 55.84284476]}";
"193";"«Митинская ул., 48», Митинская улица (193)";"37.35496588";"55.84954574";"Митинская улица";"Северо-Западный административный округ";"район Митино";"А266; А451; А614; А741; А959; АС3";"Митинская ул., 48";"";"да";"ГУП «Мосгортранс»";"активна";"889085304";"{type=Point, coordinates=[37.35496588, 55.84954574]}";
"194";"«4-й Новомихалковский пр. - Поликлиника № 159», 4-й Новомихалковский проезд (194)";"37.54506468";"55.84075235";"4-й Новомихалковский проезд";"Северный административный округ";"район Коптево";"А123; А87";"4-й Новомихалковский пр. - Поликлиника № 159";"";"да";"ГУП «Мосгортранс»";"активна";"889085305";"{type=Point, coordinates=[37.54506468, 55.84075235]}";
"195";"«Кадетский корпус полиции», 4-й Новомихалковский проезд (195)";"37.54341964";"55.84320609";"4-й Новомихалковский проезд";"Северный административный округ";"район Коптево";"А123; А87";"Кадетский корпус полиции";"";"да";"ГУП «Мосгортранс»";"активна";"889085306";"{type=Point, coordinates=[37.54341964, 55.84320609]}";
"196";"«НАМИ», Автомоторная улица (196)";"37.54100334";"55.8464752";"Автомоторная улица";"Северный административный округ";"Головинский район";"А123; А22";"НАМИ";"";"да";"ГУП «Мосгортранс»";"активна";"889085307";"{type=Point, coordinates=[37.54100334, 55.8464752]}";
"197";"«Автомоторная ул.», Автомоторная улица (197)";"37.53602663";"55.84995017";"Автомоторная улица";"Северный административный округ";"Головинский район";"А123; А22";"Автомоторная ул.";"";"да";"ГУП «Мосгортранс»";"активна";"889085308";"{type=Point, coordinates=[37.53602663, 55.84995017]}";
"198";"«Лихоборская наб. - Хим-тех. з-д», Автомоторная улица (198)";"37.53094503";"55.85291772";"Автомоторная улица";"Северный административный округ";"Головинский район";"А123; А22";"Лихоборская наб. - Хим-тех. з-д";"";"да";"ГУП «Мосгортранс»";"активна";"889085309";"{type=Point, coordinates=[37.53094503, 55.85291772]}";
"199";"«База механизации», 4-й Лихачёвский переулок (199)";"37.5270668";"55.85127231";"4-й Лихачёвский переулок";"Северный административный округ";"Головинский район";"А123; А22";"База механизации";"";"да";"ГУП «Мосгортранс»";"активна";"889085310";"{type=Point, coordinates=[37.5270668, 55.85127231]}";
"200";"«3-й Лихачевский пер.», Онежская улица (200)";"37.52091766";"55.84831504";"Онежская улица";"Северный административный округ";"Головинский район";"А123; А139; А22; А565; А595; А621; А72; А801; А888; А90";"3-й Лихачевский пер.";"";"да";"ГУП «Мосгортранс»";"активна";"889085311";"{type=Point, coordinates=[37.52091766, 55.84831504]}";
"201";"«Диспансер», Нарвская улица (201)";"37.50476566";"55.83753521";"Нарвская улица";"Северный административный округ";"Головинский район";"А123; А565";"Диспансер";"";"да";"ГУП «Мосгортранс»";"активна";"889085312";"{type=Point, coordinates=[37.50476566, 55.83753521]}";
"202";"«Детский сад», Нарвская улица (202)";"37.50345789";"55.84200552";"Нарвская улица";"Северный административный округ";"Головинский район";"А123; А565";"Детский сад";"";"да";"ГУП «Мосгортранс»";"активна";"889085313";"{type=Point, coordinates=[37.50345789, 55.84200552]}";
"203";"«Гимназия № 1583», Кронштадтский бульвар (203)";"37.49912551";"55.84370335";"Кронштадтский бульвар";"Северный административный округ";"Головинский район";"А123; А139; А565; А594; А595; А65; А65К; А698; А72; А888";"Гимназия № 1583";"";"да";"ГУП «Мосгортранс»";"активна";"889085314";"{type=Point, coordinates=[37.49912551, 55.84370335]}";
"204";"«Кронштадтский бульв.», Кронштадтский бульвар (204)";"37.49584482";"55.84289574";"Кронштадтский бульвар";"Северный административный округ";"Головинский район";"А123; А139; А565; А594; А595; А65; А65К; А698; А72; А888";"Кронштадтский бульв.";"";"да";"ГУП «Мосгортранс»";"активна";"889085315";"{type=Point, coordinates=[37.49584482, 55.84289574]}";
"206";"«15-й таксомоторный парк», улица Дыбенко (206)";"37.48465472";"55.86851809";"улица Дыбенко";"Северный административный округ";"район Ховрино";"А200; А559; А673; А739; А745";"15-й таксомоторный парк";"";"да";"ГУП «Мосгортранс»";"активна";"889085316";"{type=Point, coordinates=[37.48465472, 55.86851809]}";
"207";"«19-й квартал», улица Дыбенко (207)";"37.48251534";"55.87602353";"улица Дыбенко";"Северный административный округ";"район Ховрино";"А559; А673; А745";"19-й квартал";"";"нет";"";"активна";"889085317";"{type=Point, coordinates=[37.48251534, 55.87602353]}";
"208";"«Интернат», Смольная улица (208)";"37.46875212";"55.87324867";"Смольная улица";"Северный административный округ";"район Левобережный";"А173; А270; А338; А65; А739";"Интернат";"";"да";"ГУП «Мосгортранс»";"активна";"889085318";"{type=Point, coordinates=[37.46875212, 55.87324867]}";
"209";"«11-й автобусный парк - Киностудия», Смольная улица (209)";"37.47087508";"55.87122038";"Смольная улица";"Северный административный округ";"район Левобережный";"А173; А270; А338; А739";"11-й автобусный парк - Киностудия";"";"да";"ГУП «Мосгортранс»";"активна";"889085319";"{type=Point, coordinates=[37.47087508, 55.87122038]}";
"210";"«Смольная ул., 61», Смольная улица (210)";"37.47291097";"55.86924721";"Смольная улица";"Северный административный округ";"район Левобережный";"А173; А270; А338; А739";"Смольная ул., 61";"";"да";"ГУП «Мосгортранс»";"активна";"889085320";"{type=Point, coordinates=[37.47291097, 55.86924721]}";
"211";"«Поликлиника», Смольная улица (211)";"37.47593628";"55.86632944";"Смольная улица";"Северный административный округ";"район Левобережный";"А173; А270; А338; А739";"Поликлиника";"";"да";"ГУП «Мосгортранс»";"активна";"889085321";"{type=Point, coordinates=[37.47593628, 55.86632944]}";
"212";"«Смольная ул.», Фестивальная улица (212)";"37.4860899";"55.85820315";"Фестивальная улица";"Северный административный округ";"район Левобережный";"А188; А200; А233; А284; А559; А739; А745; А801; А857";"Смольная ул.";"";"да";"ГУП «Мосгортранс»";"активна";"889085322";"{type=Point, coordinates=[37.4860899, 55.85820315]}";
"213";"«Фестивальная ул., 14», Фестивальная улица (213)";"37.49617308";"55.86018085";"Фестивальная улица";"Северный административный округ";"район Ховрино";"А188; А233; А284; А594; А857";"Фестивальная ул., 14";"";"да";"ГУП «Мосгортранс»";"активна";"889085323";"{type=Point, coordinates=[37.49617308, 55.86018085]}";
"214";"«Фестивальная ул., 65», Фестивальная улица (214)";"37.50113583";"55.8609953";"Фестивальная улица";"Северный административный округ";"район Ховрино";"А188; А233; А284; А594; А857";"Фестивальная ул., 65";"";"да";"ГУП «Мосгортранс»";"активна";"889085324";"{type=Point, coordinates=[37.50113583, 55.8609953]}";
"216";"«Фестивальная ул.», Фестивальная улица (216)";"37.50368468";"55.86192982";"Фестивальная улица";"Северный административный округ";"район Ховрино";"А233; А284; А594; А745; А857";"Фестивальная ул.";"";"да";"ГУП «Мосгортранс»";"активна";"889085325";"{type=Point, coordinates=[37.50368468, 55.86192982]}";
"217";"«Фестивальная ул., 14», Фестивальная улица (217)";"37.49502105";"55.86023665";"Фестивальная улица";"Северный административный округ";"район Ховрино";"А233; А284; А594; А745; А857";"Фестивальная ул., 14";"";"да";"ГУП «Мосгортранс»";"активна";"889085326";"{type=Point, coordinates=[37.49502105, 55.86023665]}";
"218";"«Поликлиника», Смольная улица (218)";"37.47572273";"55.86691808";"Смольная улица";"Северный административный округ";"район Левобережный";"А138; А173; А270; А338";"Поликлиника";"";"да";"ГУП «Мосгортранс»";"активна";"889085327";"{type=Point, coordinates=[37.47572273, 55.86691808]}";
"219";"«Смольная ул., 61», Смольная улица (219)";"37.47250317";"55.87006376";"Смольная улица";"Северный административный округ";"район Левобережный";"А138; А173; А270; А338";"Смольная ул., 61";"";"да";"ГУП «Мосгортранс»";"активна";"889085328";"{type=Point, coordinates=[37.47250317, 55.87006376]}";
"220";"«11-й автобусный парк - Киностудия», Смольная улица (220)";"37.47042618";"55.87205598";"Смольная улица";"Северный административный округ";"район Левобережный";"А138; А173; А270; А338";"11-й автобусный парк - Киностудия";"";"да";"ГУП «Мосгортранс»";"активна";"889085329";"{type=Point, coordinates=[37.47042618, 55.87205598]}";
"221";"«19-й квартал», улица Дыбенко (221)";"37.48222667";"55.8751448";"улица Дыбенко";"Северный административный округ";"район Ховрино";"А188; А559; А673";"19-й квартал";"";"нет";"";"активна";"889085330";"{type=Point, coordinates=[37.48222667, 55.8751448]}";
"222";"«Фестивальная ул.», Фестивальная улица (222)";"37.50674921";"55.86280819";"Фестивальная улица";"Северный административный округ";"Головинский район";"А188; А284; А500; А65; А65К; А857";"Фестивальная ул.";"";"да";"ГУП «Мосгортранс»";"активна";"889085331";"{type=Point, coordinates=[37.50674921, 55.86280819]}";
"225";"«Зеленоградская ул., 21», Зеленоградская улица (225)";"37.49737477";"55.87385147";"Зеленоградская улица";"Северный административный округ";"район Ховрино";"А188; А65";"Зеленоградская ул., 21";"";"да";"ГУП «Мосгортранс»";"активна";"889085332";"{type=Point, coordinates=[37.49737477, 55.87385147]}";
"226";"«Почта», Зеленоградская улица (226)";"37.49362797";"55.8755477";"Зеленоградская улица";"Северный административный округ";"район Ховрино";"А188; А65";"Почта";"";"да";"ГУП «Мосгортранс»";"активна";"889085333";"{type=Point, coordinates=[37.49362797, 55.8755477]}";
"227";"«Зеленоградская ул., 39», Зеленоградская улица (227)";"37.48921877";"55.87735502";"Зеленоградская улица";"Северный административный округ";"район Ховрино";"А188; А65";"Зеленоградская ул., 39";"";"да";"ГУП «Мосгортранс»";"активна";"889085334";"{type=Point, coordinates=[37.48921877, 55.87735502]}";
"228";"«Зеленоградская ул., 39», Зеленоградская улица (228)";"37.48987729";"55.87686159";"Зеленоградская улица";"Северный административный округ";"район Ховрино";"А65; А745";"Зеленоградская ул., 39";"";"да";"ГУП «Мосгортранс»";"активна";"889085335";"{type=Point, coordinates=[37.48987729, 55.87686159]}";
"229";"«Почта», Зеленоградская улица (229)";"37.49462501";"55.87495346";"Зеленоградская улица";"Северный административный округ";"район Ховрино";"А65; А745";"Почта";"";"да";"ГУП «Мосгортранс»";"активна";"889085336";"{type=Point, coordinates=[37.49462501, 55.87495346]}";
"230";"«Зеленоградская ул., 21», Зеленоградская улица (230)";"37.49835973";"55.87297274";"Зеленоградская улица";"Северный административный округ";"район Ховрино";"А65; А745";"Зеленоградская ул., 21";"";"да";"ГУП «Мосгортранс»";"активна";"889085337";"{type=Point, coordinates=[37.49835973, 55.87297274]}";
"232";"«Б-ца - Библиотека им. Короленко», Фестивальная улица (232)";"37.50768663";"55.8636384";"Фестивальная улица";"Северный административный округ";"район Ховрино";"А284; А500; А745; А857";"Б-ца - Библиотека им. Короленко";"";"да";"ГУП «Мосгортранс»";"активна";"889085338";"{type=Point, coordinates=[37.50768663, 55.8636384]}";
"233";"«Фестивальная ул., 65», Фестивальная улица (233)";"37.49975463";"55.86101472";"Фестивальная улица";"Северный административный округ";"район Ховрино";"А233; А284; А594; А745; А857";"Фестивальная ул., 65";"";"да";"ГУП «Мосгортранс»";"активна";"889085339";"{type=Point, coordinates=[37.49975463, 55.86101472]}";
"236";"«1-й Пехотный пер.», улица Академика Курчатова (236)";"37.47673416";"55.80552919";"улица Академика Курчатова";"Северо-Западный административный округ";"район Щукино";"А105; А800";"1-й Пехотный пер.";"";"да";"ГУП «Мосгортранс»";"активна";"889085340";"{type=Point, coordinates=[37.47673416, 55.80552919]}";
"237";"«Сосновая ул.», Сосновая улица (237)";"37.47964794";"55.80676444";"Сосновая улица";"Северо-Западный административный округ";"район Щукино";"А105; А800";"Сосновая ул.";"";"да";"ГУП «Мосгортранс»";"активна";"889085341";"{type=Point, coordinates=[37.47964794, 55.80676444]}";
"238";"«Детский сад», Пехотная улица (238)";"37.48400637";"55.80634772";"Пехотная улица";"Северо-Западный административный округ";"район Щукино";"А105; А800";"Детский сад";"";"да";"ГУП «Мосгортранс»";"активна";"889085342";"{type=Point, coordinates=[37.48400637, 55.80634772]}";
"239";"«1-й Волоколамский пр.», 1-й Волоколамский проезд (239)";"37.49033661";"55.80305908";"1-й Волоколамский проезд";"Северо-Западный административный округ";"район Щукино";"А105; А800";"1-й Волоколамский пр.";"";"да";"ГУП «Мосгортранс»";"активна";"889085343";"{type=Point, coordinates=[37.49033661, 55.80305908]}";
"240";"«Почта», 1-й Волоколамский проезд (240)";"37.49210035";"55.80096192";"1-й Волоколамский проезд";"Северо-Западный административный округ";"район Щукино";"А105; А800";"Почта";"";"да";"ГУП «Мосгортранс»";"активна";"889085344";"{type=Point, coordinates=[37.49210035, 55.80096192]}";
"242";"«2-й Балтийский пер.», улица Усиевича (242)";"37.52396967";"55.80644299";"улица Усиевича";"Северный административный округ";"район Аэропорт";"А105К; А110";"2-й Балтийский пер.";"";"да";"ГУП «Мосгортранс»";"активна";"889085345";"{type=Point, coordinates=[37.52396967, 55.80644299]}";
"243";"«Ленинградский рынок - К/т Баку», улица Усиевича (243)";"37.52821794";"55.80531741";"улица Усиевича";"Северный административный округ";"район Аэропорт";"А105К; А110";"Ленинградский рынок - К/т Баку";"";"да";"ГУП «Мосгортранс»";"активна";"889085346";"{type=Point, coordinates=[37.52821794, 55.80531741]}";
"244";"«4-я ул. 8-го Марта», Планетная улица (244)";"37.54618946";"55.80222889";"Планетная улица";"Северный административный округ";"район Аэропорт";"А105К";"4-я ул. 8-го Марта";"";"да";"ГУП «Мосгортранс»";"активна";"889085347";"{type=Point, coordinates=[37.54618946, 55.80222889]}";
"245";"«1-я ул. 8-го Марта», Планетная улица (245)";"37.54935307";"55.80027904";"Планетная улица";"Северный административный округ";"район Аэропорт";"А105К";"1-я ул. 8-го Марта";"";"да";"ГУП «Мосгортранс»";"активна";"889085348";"{type=Point, coordinates=[37.54935307, 55.80027904]}";
"246";"«Петровско-Разумовская аллея», Петровско-Разумовская аллея (246)";"37.55895913";"55.79487824";"Петровско-Разумовская аллея";"Северный административный округ";"район Аэропорт";"А105К; А22; А22к; А319; А384; А595; А84; А84К";"Петровско-Разумовская аллея";"";"да";"ГУП «Мосгортранс»";"активна";"889085349";"{type=Point, coordinates=[37.55895913, 55.79487824]}";
"247";"«1-я ул. 8-го Марта», Планетная улица (247)";"37.548412938";"55.8011267664";"Планетная улица";"Северный административный округ";"район Аэропорт";"А105; А105К";"1-я ул. 8-го Марта";"";"да";"ГУП «Мосгортранс»";"активна";"889085350";"{type=Point, coordinates=[37.548412938, 55.8011267664]}";
"248";"«4-я ул. 8-го Марта», Планетная улица (248)";"37.54517782";"55.80315252";"Планетная улица";"Северный административный округ";"район Аэропорт";"А105; А105К";"4-я ул. 8-го Марта";"";"да";"ГУП «Мосгортранс»";"активна";"889085351";"{type=Point, coordinates=[37.54517782, 55.80315252]}";
"249";"«Ленинградский рынок - К/т Баку», Часовая улица (249)";"37.52945405";"55.80877473";"Часовая улица";"Северный административный округ";"район Аэропорт";"А105; А105К; А110";"Ленинградский рынок - К/т Баку";"";"да";"ГУП «Мосгортранс»";"активна";"889085352";"{type=Point, coordinates=[37.52945405, 55.80877473]}";
"250";"«Университет Путей сообщения», Часовая улица (250)";"37.52573767";"55.80972867";"Часовая улица";"Северный административный округ";"район Аэропорт";"А105; А105К; А110";"Университет Путей сообщения";"";"да";"ГУП «Мосгортранс»";"активна";"889085353";"{type=Point, coordinates=[37.52573767, 55.80972867]}";
"251";"«1-й Балтийский пер.», Часовая улица (251)";"37.5202407";"55.81113993";"Часовая улица";"Северный административный округ";"район Аэропорт";"А105; А105К; А110";"1-й Балтийский пер.";"";"нет";"";"активна";"889085354";"{type=Point, coordinates=[37.5202407, 55.81113993]}";
"253";"«Почта», 1-й Волоколамский проезд (253)";"37.49206711";"55.80137286";"1-й Волоколамский проезд";"Северо-Западный административный округ";"район Щукино";"А105; А800";"Почта";"";"да";"ГУП «Мосгортранс»";"активна";"889085355";"{type=Point, coordinates=[37.49206711, 55.80137286]}";
"254";"«1-й Волоколамский пр.», 1-й Волоколамский проезд (254)";"37.49077163";"55.80282528";"1-й Волоколамский проезд";"Северо-Западный административный округ";"район Щукино";"А105; А800";"1-й Волоколамский пр.";"";"да";"ГУП «Мосгортранс»";"активна";"889085356";"{type=Point, coordinates=[37.49077163, 55.80282528]}";
"255";"«2-й Пехотный пер.», 2-й Пехотный переулок (255)";"37.488723";"55.80451364";"2-й Пехотный переулок";"Северо-Западный административный округ";"район Щукино";"А105; А800";"2-й Пехотный пер.";"";"да";"ГУП «Мосгортранс»";"активна";"889085357";"{type=Point, coordinates=[37.488723, 55.80451364]}";
"256";"«52-я гор. б-ца», Пехотная улица (256)";"37.48429864";"55.80584452";"Пехотная улица";"Северо-Западный административный округ";"район Щукино";"А105; А800";"52-я гор. б-ца";"";"да";"ГУП «Мосгортранс»";"активна";"889085358";"{type=Point, coordinates=[37.48429864, 55.80584452]}";
"257";"«Детский сад», Сосновая улица (257)";"37.48307023";"55.80702966";"Сосновая улица";"Северо-Западный административный округ";"район Щукино";"А105; А800";"Детский сад";"";"нет";"";"активна";"889085359";"{type=Point, coordinates=[37.48307023, 55.80702966]}";
"258";"«Сосновая ул.», Сосновая улица (258)";"37.47847049";"55.80690064";"Сосновая улица";"Северо-Западный административный округ";"район Щукино";"А105; А800";"Сосновая ул.";"";"да";"ГУП «Мосгортранс»";"активна";"889085360";"{type=Point, coordinates=[37.47847049, 55.80690064]}";
"259";"«1-й Пехотный пер.», улица Академика Курчатова (259)";"37.47660275";"55.80425072";"улица Академика Курчатова";"Северо-Западный административный округ";"район Щукино";"А105; А800";"1-й Пехотный пер.";"";"да";"ГУП «Мосгортранс»";"активна";"889085361";"{type=Point, coordinates=[37.47660275, 55.80425072]}";
"260";"«Пулковская ул.», Авангардная улица (260)";"37.48956885";"55.84613923";"Авангардная улица";"Северный административный округ";"Головинский район";"А500; А621; А70";"Пулковская ул.";"";"да";"ГУП «Мосгортранс»";"активна";"889085362";"{type=Point, coordinates=[37.48956885, 55.84613923]}";
"261";"«Флотская ул., 36», Флотская улица (261)";"37.49234418";"55.85079102";"Флотская улица";"Северный административный округ";"Головинский район";"А500; А621; А70";"Флотская ул., 36";"";"да";"ГУП «Мосгортранс»";"активна";"889085363";"{type=Point, coordinates=[37.49234418, 55.85079102]}";
"262";"«Поликлиника», Флотская улица (262)";"37.50108072";"55.85399188";"Флотская улица";"Северный административный округ";"Головинский район";"А500; А621; А698; А70";"Поликлиника";"";"да";"ГУП «Мосгортранс»";"активна";"889085364";"{type=Point, coordinates=[37.50108072, 55.85399188]}";
"263";"«Школа № 648», Флотская улица (263)";"37.50383408";"55.8549718";"Флотская улица";"Северный административный округ";"Головинский район";"А500; А621; А698; А70";"Школа № 648";"";"да";"ГУП «Мосгортранс»";"активна";"889085365";"{type=Point, coordinates=[37.50383408, 55.8549718]}";
"264";"«Флотская ул.», Флотская улица (264)";"37.50949264";"55.85700257";"Флотская улица";"Северный административный округ";"Головинский район";"А500; А621; А698; А70";"Флотская ул.";"";"да";"ГУП «Мосгортранс»";"активна";"889085366";"{type=Point, coordinates=[37.50949264, 55.85700257]}";
"265";"«Солнечногорская ул.», Солнечногорская улица (265)";"37.51478718";"55.85677503";"Солнечногорская улица";"Северный административный округ";"Головинский район";"А565; А65; А698; А70";"Солнечногорская ул.";"";"да";"ГУП «Мосгортранс»";"активна";"889085367";"{type=Point, coordinates=[37.51478718, 55.85677503]}";
"266";"«Сенежская ул.,1 - Торговое училище», Сенежская улица (266)";"37.51657768";"55.85973631";"Сенежская улица";"Северный административный округ";"Головинский район";"А70";"Сенежская ул.,1 - Торговое училище";"";"да";"ГУП «Мосгортранс»";"активна";"889085368";"{type=Point, coordinates=[37.51657768, 55.85973631]}";
"267";"«Сенежская ул.», Сенежская улица (267)";"37.51423581";"55.86089426";"Сенежская улица";"Северный административный округ";"Головинский район";"А70";"Сенежская ул.";"";"нет";"";"активна";"889085369";"{type=Point, coordinates=[37.51423581, 55.86089426]}";
"268";"«Солнечногорская ул.», Солнечногорская улица (268)";"37.51401468";"55.85642813";"Солнечногорская улица";"Северный административный округ";"Головинский район";"А565; А65; А65К; А698; А70";"Солнечногорская ул.";"";"да";"ГУП «Мосгортранс»";"активна";"889085370";"{type=Point, coordinates=[37.51401468, 55.85642813]}";
"269";"«Флотская ул.», Флотская улица (269)";"37.50859495";"55.85691524";"Флотская улица";"Северный административный округ";"район Ховрино";"А500; А621; А698; А70";"Флотская ул.";"";"да";"ГУП «Мосгортранс»";"активна";"889085371";"{type=Point, coordinates=[37.50859495, 55.85691524]}";
"270";"«Поликлиника», Флотская улица (270)";"37.50178932";"55.85446122";"Флотская улица";"Северный административный округ";"район Ховрино";"А500; А621; А698; А70";"Поликлиника";"";"да";"ГУП «Мосгортранс»";"активна";"889085372";"{type=Point, coordinates=[37.50178932, 55.85446122]}";
"271";"«Смольная ул.», Флотская улица (271)";"37.49462719";"55.85184812";"Флотская улица";"Северный административный округ";"район Левобережный";"А500; А594; А621; А698; А70";"Смольная ул.";"";"да";"ГУП «Мосгортранс»";"активна";"889085373";"{type=Point, coordinates=[37.49462719, 55.85184812]}";
"272";"«Пулковская ул.», Авангардная улица (272)";"37.48979253";"55.84540275";"Авангардная улица";"Северный административный округ";"Головинский район";"А500; А621; А70";"Пулковская ул.";"";"да";"ГУП «Мосгортранс»";"активна";"889085375";"{type=Point, coordinates=[37.48979253, 55.84540275]}";
"273";"«Ин-т Цветметавтоматика», Бескудниковский бульвар (273)";"37.5624217";"55.85891159";"Бескудниковский бульвар";"Северный административный округ";"Бескудниковский район";"А114; А154; А167; Тб36; А466; АМ10; АТ47";"Ин-т Цветметавтоматика";"";"да";"ГУП «Мосгортранс»";"активна";"889085376";"{type=Point, coordinates=[37.5624217, 55.85891159]}";
"274";"«Метро Верхние Лихоборы - Северный вестибюль», Бескудниковский бульвар (274)";"37.56240503";"55.85738031";"Бескудниковский бульвар";"Северный административный округ";"Бескудниковский район";"А114; А149; А154; А167; А170; АМ10";"Метро Верхние Лихоборы - Северный вестибюль";"";"да";"ГУП «Мосгортранс»";"активна";"889085377";"{type=Point, coordinates=[37.56240503, 55.85738031]}";
"275";"«Нарвская ул. - Университет Гражданской Авиации», Кронштадтский бульвар (275)";"37.5031925";"55.84459084";"Кронштадтский бульвар";"Северный административный округ";"Головинский район";"А139; А595; А65; А65К; А72; А888";"Нарвская ул. - Университет Гражданской Авиации";"";"да";"ГУП «Мосгортранс»";"активна";"889085378";"{type=Point, coordinates=[37.5031925, 55.84459084]}";
"276";"«Акад. Туризма», Кронштадтский бульвар (276)";"37.51280334";"55.85174733";"Кронштадтский бульвар";"Северный административный округ";"Головинский район";"А139; А595; А65; А65К; А72; А888";"Акад. Туризма";"";"да";"ГУП «Мосгортранс»";"активна";"889085379";"{type=Point, coordinates=[37.51280334, 55.85174733]}";
"277";"«Лихоборская наб.», Кронштадтский бульвар (277)";"37.51607697";"55.85266649";"Кронштадтский бульвар";"Северный административный округ";"Головинский район";"А139; А595; А65; А65К; А72; А888";"Лихоборская наб.";"";"да";"ГУП «Мосгортранс»";"активна";"889085380";"{type=Point, coordinates=[37.51607697, 55.85266649]}";
"278";"«Солнечногорская ул.,15 - Торговое училище», Солнечногорская улица (278)";"37.52010601";"55.86081819";"Солнечногорская улица";"Северный административный округ";"Головинский район";"А565; А65; А698";"Солнечногорская ул.,15 - Торговое училище";"";"да";"ГУП «Мосгортранс»";"активна";"889085381";"{type=Point, coordinates=[37.52010601, 55.86081819]}";
"279";"«Солнечногорская ул.,15 - Торговое училище», Солнечногорская улица (279)";"37.51934402";"55.86053444";"Солнечногорская улица";"Северный административный округ";"Головинский район";"А565; А65; А65К; А698";"Солнечногорская ул.,15 - Торговое училище";"";"да";"ГУП «Мосгортранс»";"активна";"889085382";"{type=Point, coordinates=[37.51934402, 55.86053444]}";
"280";"«Лихоборская наб.», Кронштадтский бульвар (280)";"37.5151295";"55.85259736";"Кронштадтский бульвар";"Северный административный округ";"Головинский район";"А139; А595; А65; А65К; А72; А888";"Лихоборская наб.";"";"да";"ГУП «Мосгортранс»";"активна";"889085383";"{type=Point, coordinates=[37.5151295, 55.85259736]}";
"281";"«Акад. Туризма», Кронштадтский бульвар (281)";"37.51095173";"55.85131969";"Кронштадтский бульвар";"Северный административный округ";"Головинский район";"А139; А595; А65; А65К; А72; А888";"Акад. Туризма";"";"да";"ГУП «Мосгортранс»";"активна";"889085384";"{type=Point, coordinates=[37.51095173, 55.85131969]}";
"282";"«Нарвская ул. - Университет Гражданской Авиации», Кронштадтский бульвар (282)";"37.50317031";"55.8447254";"Кронштадтский бульвар";"Северный административный округ";"Головинский район";"А139; А595; А65; А65К; А72; А888";"Нарвская ул. - Университет Гражданской Авиации";"";"да";"ГУП «Мосгортранс»";"активна";"889085385";"{type=Point, coordinates=[37.50317031, 55.8447254]}";
"283";"«Пр. Черепановых», Михалковская улица (283)";"37.52662018";"55.83961008";"Михалковская улица";"Северный административный округ";"район Коптево";"А22; А595; А72; А801; А87";"Пр. Черепановых";"";"да";"ГУП «Мосгортранс»";"активна";"889085386";"{type=Point, coordinates=[37.52662018, 55.83961008]}";
"284";"«Соболевский пр.», Михалковская улица (284)";"37.5301106";"55.83867407";"Михалковская улица";"Северный административный округ";"район Коптево";"А22; А595; А72; А801; А87";"Соболевский пр.";"";"да";"ГУП «Мосгортранс»";"активна";"889085387";"{type=Point, coordinates=[37.5301106, 55.83867407]}";
"285";"«К/т Байкал», улица Прянишникова (285)";"37.5406501216";"55.8358742113";"улица Прянишникова";"Северный административный округ";"Тимирязевский район";"А22; А72; А801; А87";"К/т Байкал";"";"нет";"";"активна";"889085388";"{type=Point, coordinates=[37.5406501216, 55.8358742113]}";
"286";"«Университет Печати», улица Прянишникова (286)";"37.54323422";"55.83518736";"улица Прянишникова";"Северный административный округ";"Тимирязевский район";"А22; А595; А72; А801; А87";"Университет Печати";"";"нет";"";"активна";"889085389";"{type=Point, coordinates=[37.54323422, 55.83518736]}";
"287";"«Тимирязевская академия», Тимирязевская улица (287)";"37.54993836";"55.83341524";"Тимирязевская улица";"Северный административный округ";"Тимирязевский район";"А22; А595; А72; А801; А87";"Тимирязевская академия";"";"да";"ГУП «Мосгортранс»";"активна";"889085390";"{type=Point, coordinates=[37.54993836, 55.83341524]}";
"288";"«Пасечная ул.», Тимирязевская улица (288)";"37.55276469";"55.82979983";"Тимирязевская улица";"Северный административный округ";"Тимирязевский район";"А22; А595; А72; А801; А87";"Пасечная ул.";"";"да";"ГУП «Мосгортранс»";"активна";"889085391";"{type=Point, coordinates=[37.55276469, 55.82979983]}";
"289";"«Парк Дубки», Тимирязевская улица (289)";"37.56230019";"55.81830039";"Тимирязевская улица";"Северный административный округ";"Тимирязевский район";"А22; А595; А692; А72; А801; А82";"Парк Дубки";"";"да";"ГУП «Мосгортранс»";"активна";"889085392";"{type=Point, coordinates=[37.56230019, 55.81830039]}";
"290";"«50-я гор. б-ца», улица Вучетича (290)";"37.55706274";"55.81245767";"улица Вучетича";"Северный административный округ";"Тимирязевский район";"А22; А319; А595; А692";"50-я гор. б-ца";"";"да";"ГУП «Мосгортранс»";"активна";"889085393";"{type=Point, coordinates=[37.55706274, 55.81245767]}";
"291";"«Пр. Соломенной Сторожки», улица Вучетича (291)";"37.56009979";"55.80729184";"улица Вучетича";"Северный административный округ";"Тимирязевский район";"А22; А319; А595; А692";"Пр. Соломенной Сторожки";"";"да";"ГУП «Мосгортранс»";"активна";"889085394";"{type=Point, coordinates=[37.56009979, 55.80729184]}";
"292";"«Дмитровский пр.», Тимирязевская улица (292)";"37.57133003";"55.80737234";"Тимирязевская улица";"Северный административный округ";"Тимирязевский район";"А22; А319; А595; А692; А72; А82";"Дмитровский пр.";"";"да";"ГУП «Мосгортранс»";"активна";"889085395";"{type=Point, coordinates=[37.57133003, 55.80737234]}";
"293";"«Всероссийское Общество Слепых», 2-я Хуторская улица (293)";"37.56798446";"55.80496909";"2-я Хуторская улица";"Северный административный округ";"Савёловский район";"А22; А319; А692; А82";"Всероссийское Общество Слепых";"";"да";"ГУП «Мосгортранс»";"активна";"889085396";"{type=Point, coordinates=[37.56798446, 55.80496909]}";
"294";"«2-я Хуторская ул.», Петровско-Разумовский проезд (294)";"37.56360306";"55.80245464";"Петровско-Разумовский проезд";"Северный административный округ";"Савёловский район";"А22; А319; А692; А82";"2-я Хуторская ул.";"";"да";"ГУП «Мосгортранс»";"активна";"889085397";"{type=Point, coordinates=[37.56360306, 55.80245464]}";
"295";"«Писцовая ул.», Петровско-Разумовский проезд (295)";"37.56828288";"55.7976739";"Петровско-Разумовский проезд";"Северный административный округ";"Савёловский район";"А22; А692; А82";"Писцовая ул.";"";"да";"ГУП «Мосгортранс»";"активна";"889085398";"{type=Point, coordinates=[37.56828288, 55.7976739]}";
"296";"«Петровско-Разумовский пр.», Петровско-Разумовский проезд (296)";"37.56856682";"55.7959313";"Петровско-Разумовский проезд";"Северный административный округ";"Савёловский район";"А22; А692";"Петровско-Разумовский пр.";"";"да";"ГУП «Мосгортранс»";"активна";"889085399";"{type=Point, coordinates=[37.56856682, 55.7959313]}";
"299";"«Петровско-Разумовский пр.», Петровско-Разумовский проезд (299)";"37.56899242";"55.79483867";"Петровско-Разумовский проезд";"Северный административный округ";"Савёловский район";"А22; А692";"Петровско-Разумовский пр.";"";"да";"ГУП «Мосгортранс»";"активна";"889085400";"{type=Point, coordinates=[37.56899242, 55.79483867]}";
"300";"«Писцовая ул.», Петровско-Разумовский проезд (300)";"37.56806202";"55.79828331";"Петровско-Разумовский проезд";"Северный административный округ";"Савёловский район";"А22; А319; А692; А82";"Писцовая ул.";"";"да";"ГУП «Мосгортранс»";"активна";"889085401";"{type=Point, coordinates=[37.56806202, 55.79828331]}";
"301";"«2-я Хуторская ул.», Петровско-Разумовский проезд (301)";"37.56409114";"55.80233029";"Петровско-Разумовский проезд";"Северный административный округ";"Савёловский район";"А22; А319; А692; А82";"2-я Хуторская ул.";"";"да";"ГУП «Мосгортранс»";"активна";"889085402";"{type=Point, coordinates=[37.56409114, 55.80233029]}";
"302";"«Всероссийское Общество Слепых», 2-я Хуторская улица (302)";"37.56887588";"55.80500294";"2-я Хуторская улица";"Северный административный округ";"Савёловский район";"А22; А319; А692; А82";"Всероссийское Общество Слепых";"";"да";"ГУП «Мосгортранс»";"активна";"889085403";"{type=Point, coordinates=[37.56887588, 55.80500294]}";
"303";"«Дмитровский пр.», Тимирязевская улица (303)";"37.57049117";"55.80882552";"Тимирязевская улица";"Северный административный округ";"Тимирязевский район";"А22; А319; А595; А604; А692; А72; А727; А82";"Дмитровский пр.";"";"да";"ГУП «Мосгортранс»";"активна";"889085404";"{type=Point, coordinates=[37.57049117, 55.80882552]}";
"304";"«50-я гор. б-ца», улица Вучетича (304)";"37.55786267";"55.81167022";"улица Вучетича";"Северный административный округ";"Тимирязевский район";"А22; А319; А466; А574; А595; А604; А692; А801";"50-я гор. б-ца";"";"да";"ГУП «Мосгортранс»";"активна";"889085405";"{type=Point, coordinates=[37.55786267, 55.81167022]}";
"305";"«Парк Дубки», Тимирязевская улица (305)";"37.56165453";"55.81949598";"Тимирязевская улица";"Северный административный округ";"Тимирязевский район";"А22; А319; А466; А574; А595; А604; А692; А72; А801; А82";"Парк Дубки";"";"да";"ГУП «Мосгортранс»";"активна";"889085406";"{type=Point, coordinates=[37.56165453, 55.81949598]}";
"306";"«Красностуденческий пр.», Тимирязевская улица (306)";"37.55898612";"55.82271493";"Тимирязевская улица";"Северный административный округ";"Тимирязевский район";"А22; А595; А72; А801";"Красностуденческий пр.";"";"да";"ГУП «Мосгортранс»";"активна";"889085407";"{type=Point, coordinates=[37.55898612, 55.82271493]}";
"307";"«Пасечная ул.», Тимирязевская улица (307)";"37.5525004";"55.83051264";"Тимирязевская улица";"Северный административный округ";"Тимирязевский район";"А22; А595; А72; А801; А87";"Пасечная ул.";"";"да";"ГУП «Мосгортранс»";"активна";"889085408";"{type=Point, coordinates=[37.5525004, 55.83051264]}";
"308";"«Тимирязевская академия», Тимирязевская улица (308)";"37.55004232";"55.83375504";"Тимирязевская улица";"Северный административный округ";"Тимирязевский район";"А22; А595; А72; А801; А87";"Тимирязевская академия";"";"да";"ГУП «Мосгортранс»";"активна";"889085409";"{type=Point, coordinates=[37.55004232, 55.83375504]}";
"309";"«Университет Печати», улица Прянишникова (309)";"37.54191519";"55.83571746";"улица Прянишникова";"Северный административный округ";"Тимирязевский район";"А22; А595; А72; А801; А87";"Университет Печати";"";"да";"ГУП «Мосгортранс»";"активна";"889085410";"{type=Point, coordinates=[37.54191519, 55.83571746]}";
"310";"«К/т Байкал», Михалковская улица (310)";"37.53760115";"55.83686083";"Михалковская улица";"Северный административный округ";"район Коптево";"А22; А595; А72; А801; А87";"К/т Байкал";"";"нет";"";"активна";"889085411";"{type=Point, coordinates=[37.53760115, 55.83686083]}";
"311";"«Пр. Черепановых», Михалковская улица (311)";"37.52668729";"55.83977396";"Михалковская улица";"Северный административный округ";"район Коптево";"А22; А595; А72; А801; А87";"Пр. Черепановых";"";"да";"ГУП «Мосгортранс»";"активна";"889085412";"{type=Point, coordinates=[37.52668729, 55.83977396]}";
"313";"«М-н Оптика», Петровско-Разумовский проезд (313)";"37.56965969";"55.79220519";"Петровско-Разумовский проезд";"Северный административный округ";"Савёловский район";"А22; АТ29";"М-н Оптика";"";"да";"ГУП «Мосгортранс»";"активна";"889085413";"{type=Point, coordinates=[37.56965969, 55.79220519]}";
"314";"«Пр. Соломенной Сторожки», улица Вучетича (314)";"37.56000307";"55.80805865";"улица Вучетича";"Северный административный округ";"Тимирязевский район";"А22; А319; А466; А574; А595; А604; А692; А801";"Пр. Соломенной Сторожки";"";"да";"ГУП «Мосгортранс»";"активна";"889085414";"{type=Point, coordinates=[37.56000307, 55.80805865]}";
"315";"«Ижорская ул.», Ижорская улица (315)";"37.51005825";"55.88876084";"Ижорская улица";"Северный административный округ";"Дмитровский район";"А200; А270; А656; А799";"Ижорская ул.";"";"да";"ГУП «Мосгортранс»";"активна";"889085415";"{type=Point, coordinates=[37.51005825, 55.88876084]}";
"316";"«Бусиново», улица Бусиновская Горка (316)";"37.49607096";"55.88176129";"улица Бусиновская Горка";"Северный административный округ";"район Западное Дегунино";"А200; А270; А559; А656";"Бусиново";"";"нет";"";"активна";"889085416";"{type=Point, coordinates=[37.49607096, 55.88176129]}";
"317";"«Краснополянская ул.», Краснополянская улица (317)";"37.48803781";"55.88465504";"Краснополянская улица";"Северный административный округ";"район Западное Дегунино";"А200; А270; А559; А656";"Краснополянская ул.";"";"да";"ГУП «Мосгортранс»";"активна";"889085417";"{type=Point, coordinates=[37.48803781, 55.88465504]}";
"318";"«Ижорская ул., 6», Ижорская улица (318)";"37.50137028";"55.88251592";"Ижорская улица";"Северный административный округ";"район Западное Дегунино";"А200; А270; А559; А656; А799";"Ижорская ул., 6";"";"да";"ГУП «Мосгортранс»";"активна";"889085418";"{type=Point, coordinates=[37.50137028, 55.88251592]}";
"319";"«Ул. Марш. Федоренко», Краснополянская улица (319)";"37.48590023";"55.88337571";"Краснополянская улица";"Северный административный округ";"район Западное Дегунино";"А200; А270; А559; А656; А799";"Ул. Марш. Федоренко";"";"да";"ГУП «Мосгортранс»";"активна";"889085419";"{type=Point, coordinates=[37.48590023, 55.88337571]}";
"320";"«Краснополянская ул.», Краснополянская улица (320)";"37.48930901";"55.88488982";"Краснополянская улица";"Северный административный округ";"район Западное Дегунино";"А200; А270; А559; А656; А799";"Краснополянская ул.";"";"да";"ГУП «Мосгортранс»";"активна";"889085420";"{type=Point, coordinates=[37.48930901, 55.88488982]}";
"321";"«Ул. Бусиновская Горка», улица Бусиновская Горка (321)";"37.493061";"55.88546893";"улица Бусиновская Горка";"Северный административный округ";"район Западное Дегунино";"А200; А270; А559; А656; А799";"Ул. Бусиновская Горка";"";"да";"ГУП «Мосгортранс»";"активна";"889085421";"{type=Point, coordinates=[37.493061, 55.88546893]}";
"323";"«Ижорская ул., 6», Ижорская улица (323)";"37.50083838";"55.88171538";"Ижорская улица";"Северный административный округ";"район Западное Дегунино";"А200; А270; А559; А656; А799";"Ижорская ул., 6";"";"да";"ГУП «Мосгортранс»";"активна";"889085422";"{type=Point, coordinates=[37.50083838, 55.88171538]}";
"324";"«Рыбокомбинат», Ижорская улица (324)";"37.50484126";"55.88495156";"Ижорская улица";"Северный административный округ";"район Западное Дегунино";"А200; А270; А559; А656; А799";"Рыбокомбинат";"";"да";"ГУП «Мосгортранс»";"активна";"889085423";"{type=Point, coordinates=[37.50484126, 55.88495156]}";
"325";"«Ижорская ул.», Ижорская улица (325)";"37.51065136";"55.88870379";"Ижорская улица";"Северный административный округ";"район Западное Дегунино";"А200; А270; А656; А799";"Ижорская ул.";"";"да";"ГУП «Мосгортранс»";"активна";"889085424";"{type=Point, coordinates=[37.51065136, 55.88870379]}";
"326";"«15-й таксомоторный парк», улица Лавочкина (326)";"37.48482432";"55.86628947";"улица Лавочкина";"Северный административный округ";"район Ховрино";"А138; А188; А200; А559; А673; А801";"15-й таксомоторный парк";"";"да";"ГУП «Мосгортранс»";"активна";"889085425";"{type=Point, coordinates=[37.48482432, 55.86628947]}";
"328";"«К/т Волга», Дмитровское шоссе (328)";"37.54249343";"55.88858272";"Дмитровское шоссе";"Северный административный округ";"Дмитровский район";"А149; А63; А763; А763К; А843; А994; АТ78";"К/т Волга";"";"да";"ГУП «Мосгортранс»";"активна";"889085426";"{type=Point, coordinates=[37.54249343, 55.88858272]}";
"333";"«Селигерская ул.», Дмитровское шоссе (333)";"37.54670927";"55.8690459399999";"Дмитровское шоссе";"Северный административный округ";"Бескудниковский район";"А843; А994; АТ78";"Селигерская ул.";"";"нет";"";"активна";"889085427";"{type=Point, coordinates=[37.54670927, 55.8690459399999]}";
"336";"«7-й автобусный парк», Дмитровское шоссе (336)";"37.5651513586";"55.8521440018";"Дмитровское шоссе";"Северный административный округ";"Бескудниковский район";"А154; Тб36; А843; АТ47; АТ56; АТ78";"7-й автобусный парк";"";"да";"ГУП «Мосгортранс»";"активна";"889085428";"{type=Point, coordinates=[37.5651513586, 55.8521440018]}";
"337";"«Нижн. Лихоборы», Дмитровское шоссе (337)";"37.56835312";"55.84736639";"Дмитровское шоссе";"Северный административный округ";"Тимирязевский район";"Тб36; А591; АТ47; АТ56";"Нижн. Лихоборы";"";"да";"ГУП «Мосгортранс»";"активна";"889085429";"{type=Point, coordinates=[37.56835312, 55.84736639]}";
"340";"«434-е отделение связи», Дмитровское шоссе (340)";"37.5730144";"55.82156527";"Дмитровское шоссе";"Северный административный округ";"Тимирязевский район";"А319; А466; А574; А604; А87; АМ10; АТ47; АТ56; АТ78";"434-е отделение связи";"";"да";"ЗАО «Валль-СНГ»";"активна";"889085430";"{type=Point, coordinates=[37.5730144, 55.82156527]}";
"341";"«Ул. Всеволода Вишневского», Дмитровское шоссе (341)";"37.57784748";"55.81266755";"Дмитровское шоссе";"Северный административный округ";"Тимирязевский район";"А604; А87; АМ10; АТ47; АТ56; АТ78";"Ул. Всеволода Вишневского";"";"да";"ЗАО «Валль-СНГ»";"активна";"889085431";"{type=Point, coordinates=[37.57784748, 55.81266755]}";
"342";"«Метро Дмитровская», Бутырская улица (342)";"37.58130875";"55.80662786";"Бутырская улица";"Северный административный округ";"Савёловский район";"АТ29; АТ3; АТ47; АТ56; АТ78";"Метро Дмитровская";"";"да";"ГУП «Мосгортранс»";"активна";"889085432";"{type=Point, coordinates=[37.58130875, 55.80662786]}";
"343";"«Бутырская ул., 62», Бутырская улица (343)";"37.58301545";"55.80184252";"Бутырская улица";"Северный административный округ";"Савёловский район";"А87; АМ10; АТ29; АТ3; АТ47; АТ56; АТ78";"Бутырская ул., 62";"";"да";"ЗАО «Валль-СНГ»";"активна";"889085433";"{type=Point, coordinates=[37.58301545, 55.80184252]}";
"344";"«Бутырская ул., 46», Бутырская улица (344)";"37.5833357215";"55.800461473";"Бутырская улица";"Северный административный округ";"Савёловский район";"А87; АМ10; АТ29; АТ3; АТ47; АТ56; АТ78";"Бутырская ул., 46";"";"да";"ЗАО «Валль-СНГ»";"активна";"889085434";"{type=Point, coordinates=[37.5833357215, 55.800461473]}";
"345";"«Савеловский вокзал», Бутырская улица (345)";"37.58397332";"55.79487456";"Бутырская улица";"Северный административный округ";"Савёловский район";"А692; А84; А84К; АМ10; АТ29; АТ3; АТ47; АТ56; АТ78";"Савеловский вокзал";"";"да";"ЗАО «Валль-СНГ»";"активна";"889085435";"{type=Point, coordinates=[37.58397332, 55.79487456]}";
"347";"«2-й Лесной пер.», улица Бутырский Вал (347)";"37.58658429";"55.78210613";"улица Бутырский Вал";"Центральный административный округ";"Тверской район";"А12; АТ18; АТ56; АТ78";"2-й Лесной пер.";"";"да";"ГУП «Мосгортранс»";"активна";"889085436";"{type=Point, coordinates=[37.58658429, 55.78210613]}";
"349";"«Ул. Сущевский Вал», Новослободская улица (349)";"37.590714";"55.79062955";"Новослободская улица";"Центральный административный округ";"Тверской район";"А692; А72; АМ10; АТ3; АТ47; АТ56; АТ78";"Ул. Сущевский Вал";"";"да";"ЗАО «Валль-СНГ»";"активна";"889085437";"{type=Point, coordinates=[37.590714, 55.79062955]}";
"350";"«Савеловский вокзал», Бутырская улица (350)";"37.58463823";"55.79569066";"Бутырская улица";"Северо-Восточный административный округ";"Бутырский район";"АТ47; АТ56; АТ78";"Савеловский вокзал";"";"да";"ЗАО «Валль-СНГ»";"активна";"889085439";"{type=Point, coordinates=[37.58463823, 55.79569066]}";
"351";"«Бутырская ул., 62», Бутырская улица (351)";"37.58323426";"55.80339594";"Бутырская улица";"Северо-Восточный административный округ";"Бутырский район";"А87; АМ10; АТ29; АТ3; АТ47; АТ56; АТ78";"Бутырская ул., 62";"";"да";"ЗАО «Валль-СНГ»";"активна";"889085440";"{type=Point, coordinates=[37.58323426, 55.80339594]}";
"352";"«Метро Дмитровская», Бутырская улица (352)";"37.58158147";"55.80719327";"Бутырская улица";"Северо-Восточный административный округ";"Бутырский район";"АТ47; АТ56; АТ78";"Метро Дмитровская";"";"нет";"";"активна";"889085441";"{type=Point, coordinates=[37.58158147, 55.80719327]}";
"353";"«Ул. Всеволода Вишневского», Дмитровское шоссе (353)";"37.5780907275";"55.8133694162";"Дмитровское шоссе";"Северный административный округ";"Тимирязевский район";"А87; АМ10; АТ47; АТ56; АТ78";"Ул. Всеволода Вишневского";"";"да";"ЗАО «Валль-СНГ»";"активна";"889085442";"{type=Point, coordinates=[37.5780907275, 55.8133694162]}";
"354";"«434-е отделение связи», Дмитровское шоссе (354)";"37.57339366";"55.82214075";"Дмитровское шоссе";"Северный административный округ";"Тимирязевский район";"А87; АМ10; АТ47; АТ56; АТ78";"434-е отделение связи";"";"да";"ЗАО «Валль-СНГ»";"активна";"889085443";"{type=Point, coordinates=[37.57339366, 55.82214075]}";
"356";"«К/т Комсомолец», Дмитровское шоссе (356)";"37.56996508";"55.84105487";"Дмитровское шоссе";"Северный административный округ";"Тимирязевский район";"А692; А82; А994; АТ47; АТ56; АТ78";"К/т Комсомолец";"";"да";"ГУП «Мосгортранс»";"активна";"889085444";"{type=Point, coordinates=[37.56996508, 55.84105487]}";
"357";"«Нижн. Лихоборы», Дмитровское шоссе (357)";"37.56732208";"55.84729349";"Дмитровское шоссе";"Северный административный округ";"Тимирязевский район";"А466; А591; А994; АТ47; АТ56; АТ78";"Нижн. Лихоборы";"";"да";"ГУП «Мосгортранс»";"активна";"889085445";"{type=Point, coordinates=[37.56732208, 55.84729349]}";
"358";"«7-й автобусный парк», Дмитровское шоссе (358)";"37.5659071299999";"55.8503080199999";"Дмитровское шоссе";"Северный административный округ";"район Западное Дегунино";"Тб36; А994; АМ10; АТ47; АТ56; АТ78";"7-й автобусный парк";"";"нет";"";"активна";"889085446";"{type=Point, coordinates=[37.5659071299999, 55.8503080199999]}";
"368";"«Лианозовский элмех. з-д», Дмитровское шоссе (368)";"37.54350786";"55.89139449";"Дмитровское шоссе";"Северный административный округ";"Дмитровский район";"А149; А284; А352; А571; А63; А763; А763К; А774; А843; А92; А928; А994; АТ78";"Лианозовский элмех. з-д";"";"да";"ГУП «Мосгортранс»";"активна";"889085447";"{type=Point, coordinates=[37.54350786, 55.89139449]}";
"369";"«М-н Спортмастер», Дмитровское шоссе (369)";"37.57316568";"55.82929303";"Дмитровское шоссе";"Северный административный округ";"Тимирязевский район";"А466; А692; А82; АМ10; АТ47; АТ56; АТ78";"М-н Спортмастер";"";"да";"ГУП «Мосгортранс»";"активна";"889085448";"{type=Point, coordinates=[37.57316568, 55.82929303]}";
"370";"«Ул. Марш. Федоренко», Краснополянская улица (370)";"37.48677795";"55.88401518";"Краснополянская улица";"Северный административный округ";"район Западное Дегунино";"А200; А270; А559; А656";"Ул. Марш. Федоренко";"";"да";"ГУП «Мосгортранс»";"активна";"889085449";"{type=Point, coordinates=[37.48677795, 55.88401518]}";
"372";"«Б-ца МПС», Волоколамское шоссе (372)";"37.46064719";"55.8168591299999";"Волоколамское шоссе";"Северо-Западный административный округ";"район Покровское-Стрешнево";"Тм6";"Б-ца МПС";"";"да";"ГУП «Мосгортранс»";"активна";"889085450";"{type=Point, coordinates=[37.46064719, 55.8168591299999]}";
"373";"«Херсонская ул., 32», Херсонская улица (373)";"37.55954217";"55.65535177";"Херсонская улица";"Юго-Западный административный округ";"район Черёмушки";"А246";"Херсонская ул., 32";"";"да";"ГУП «Мосгортранс»";"активна";"889085452";"{type=Point, coordinates=[37.55954217, 55.65535177]}";
"375";"«Пехотная ул.», Волоколамское шоссе (375)";"37.48238529";"55.81133819";"Волоколамское шоссе";"Северо-Западный административный округ";"район Щукино";"А412; А456; А456к; Тб70; Тб82; А88; А904; А904К; АМ1";"Пехотная ул.";"";"да";"ГУП «Мосгортранс»";"активна";"889085453";"{type=Point, coordinates=[37.48238529, 55.81133819]}";
"378";"«Ул. Серегина», Ленинградский проспект (378)";"37.54485023";"55.79420677";"Ленинградский проспект";"Северный административный округ";"Хорошёвский район";"А105; Тб12; А412; Тб43; А456; А456к; Тб6; Тб65; Тб70; Тб82; А904; А904К; А905; АМ1; АН1";"Ул. Серегина";"";"да";"ЗАО «Валль-СНГ»";"активна";"889085454";"{type=Point, coordinates=[37.54485023, 55.79420677]}";
"379";"«Путевой дворец», Ленинградский проспект (379)";"37.54849025";"55.79263254";"Ленинградский проспект";"Северный административный округ";"Хорошёвский район";"А105; Тб12; А318; А456; Тб65; Тб70; Тб82; АМ1; АН1";"Путевой дворец";"";"нет";"";"активна";"889085455";"{type=Point, coordinates=[37.54849025, 55.79263254]}";
"380";"«Метро Динамо (южный вход)», Ленинградский проспект (380)";"37.55983741";"55.78758071";"Ленинградский проспект";"Северный административный округ";"район Беговой";"Тб12; А207; А318; А456; Тб65; Тб70; Тб82; АМ1; АН1";"Метро Динамо (южный вход)";"";"нет";"";"активна";"889085456";"{type=Point, coordinates=[37.55983741, 55.78758071]}";
"381";"«Белорусский вокзал», Ленинградский проспект (381)";"37.57900682";"55.77879349";"Ленинградский проспект";"Северный административный округ";"район Беговой";"А101; А27; А456; А84; А904; А904К; А905; АМ1; АН1";"Белорусский вокзал";"";"да";"ЗАО «Валль-СНГ»";"активна";"889085457";"{type=Point, coordinates=[37.57900682, 55.77879349]}";
"383";"«Пушкинская пл.», Пушкинская площадь (383)";"37.60654904";"55.76538912";"Пушкинская площадь";"Центральный административный округ";"Тверской район";"А15; АА";"Пушкинская пл.";"";"да";"ЗАО «Валль-СНГ»";"активна";"889085458";"{type=Point, coordinates=[37.60654904, 55.76538912]}";
"384";"«Метро Динамо (южный вход)», Ленинградский проспект (384)";"37.55939126";"55.78891631";"Ленинградский проспект";"Северный административный округ";"район Аэропорт";"А105; А110; Тб12; А22; А22к; А318; А456; Тб70; А818; Тб82; А84; АМ1; АН1; АТ29; АТ86";"Метро Динамо (южный вход)";"";"нет";"";"активна";"889085459";"{type=Point, coordinates=[37.55939126, 55.78891631]}";
"385";"«Путевой дворец», Ленинградский проспект (385)";"37.55239291";"55.79195895";"Ленинградский проспект";"Северный административный округ";"район Аэропорт";"Тб12; А456; Тб70; Тб82; АМ1; АН1; АТ86";"Путевой дворец";"";"нет";"";"активна";"889085460";"{type=Point, coordinates=[37.55239291, 55.79195895]}";
"386";"«Ул. Серегина», Ленинградский проспект (386)";"37.54602831";"55.79485212";"Ленинградский проспект";"Северный административный округ";"район Аэропорт";"Тб12; А412; Тб43; А456; А456к; Тб6; Тб70; Тб82; А904; А904К; А905; АМ1; АН1; АТ86";"Ул. Серегина";"";"да";"ЗАО «Валль-СНГ»";"активна";"889085461";"{type=Point, coordinates=[37.54602831, 55.79485212]}";
"387";"«М А Д И - Финансовый университет», Ленинградский проспект (387)";"37.52994069";"55.80150407";"Ленинградский проспект";"Северный административный округ";"район Аэропорт";"Тб12; А412; Тб43; А456; А456к; Тб6; Тб70; Тб82; А904; А904К; А905; АМ1; АН1; АТ86";"М А Д И - Финансовый университет";"";"да";"ГУП «Мосгортранс»";"активна";"889085462";"{type=Point, coordinates=[37.52994069, 55.80150407]}";
"388";"«Гидропроект», Волоколамское шоссе (388)";"37.501916";"55.80797638";"Волоколамское шоссе";"Северный административный округ";"район Сокол";"А412; А456; А456к; Тб70; Тб82; А88; АМ1";"Гидропроект";"";"да";"ЗАО «Валль-СНГ»";"активна";"889085463";"{type=Point, coordinates=[37.501916, 55.80797638]}";
"389";"«Авиационный ин-т», Волоколамское шоссе (389)";"37.49750362";"55.80877639";"Волоколамское шоссе";"Северный административный округ";"район Сокол";"А412; А456; А456к; Тб70; Тб82; А88; АМ1";"Авиационный ин-т";"";"да";"ЗАО «Валль-СНГ»";"активна";"889085464";"{type=Point, coordinates=[37.49750362, 55.80877639]}";
"390";"«Пехотная ул.», Волоколамское шоссе (390)";"37.48249108";"55.81162182";"Волоколамское шоссе";"Северо-Западный административный округ";"район Щукино";"А412; А456; А456к; Тб70; Тб82; А88; А904; А904К; АМ1";"Пехотная ул.";"";"да";"ГУП «Мосгортранс»";"активна";"889085465";"{type=Point, coordinates=[37.48249108, 55.81162182]}";
"391";"«Покровское-Стрешнево», Волоколамское шоссе (391)";"37.47657318";"55.81280014";"Волоколамское шоссе";"Северо-Западный административный округ";"район Щукино";"А412; А456; А456к; Тб70; Тб82; А88; АМ1";"Покровское-Стрешнево";"";"да";"ГУП «Мосгортранс»";"активна";"889085466";"{type=Point, coordinates=[37.47657318, 55.81280014]}";
"392";"«Иваньковское ш.», Волоколамское шоссе (392)";"37.46692625";"55.81623036";"Волоколамское шоссе";"Северо-Западный административный округ";"район Покровское-Стрешнево";"Тб82; АМ1";"Иваньковское ш.";"";"да";"ГУП «Мосгортранс»";"активна";"889085467";"{type=Point, coordinates=[37.46692625, 55.81623036]}";
"393";"«Покровское-Глебово», Волоколамское шоссе (393)";"37.46984766";"55.81533781";"Волоколамское шоссе";"Северо-Западный административный округ";"район Покровское-Стрешнево";"А412; Тб82; АМ1";"Покровское-Глебово";"";"да";"ГУП «Мосгортранс»";"активна";"889085468";"{type=Point, coordinates=[37.46984766, 55.81533781]}";
"394";"«Б-ца МПС», Волоколамское шоссе (394)";"37.45985969";"55.81785581";"Волоколамское шоссе";"Северо-Западный административный округ";"район Покровское-Стрешнево";"Тб82; АМ1";"Б-ца МПС";"";"нет";"";"активна";"889085469";"{type=Point, coordinates=[37.45985969, 55.81785581]}";
